Country Name,Year,population,country,latitude,longitude
Afghanistan,2050,76885135,AF,33.93911,67.70995
Africa Eastern and Southern,2050,1322068920,,,
Africa Western and Central,2050,853632629,,,
Albania,2050,2162674,AL,41.15333,20.16833
Algeria,2050,59565554,DZ,28.03389,1.65963
American Samoa,2050,37545,AS,-14.27097,-170.13222
Andorra,2050,82195,AD,42.54625,1.60155
Angola,2050,74295394,AO,-11.20269,17.87389
Antigua and Barbuda,2050,95055,AG,17.06082,-61.79643
Arab World,2050,718256332,,,
Argentina,2050,48308944,AR,-38.4161,-63.61667
Armenia,2050,2562549,AM,40.0691,45.03819
Aruba,2050,98964,AW,12.52111,-69.96834
Australia,2050,32798424,AU,-25.2744,133.77514
Austria,2050,8698109,AT,47.51623,14.55007
Azerbaijan,2050,11046616,AZ,40.14311,47.57693
"Bahamas, The",2050,424265,,,
Bahrain,2050,2098576,BH,25.93041,50.63777
Bangladesh,2050,214709097,BD,23.68499,90.35633
Barbados,2050,264216,BB,13.19389,-59.5432
Belarus,2050,7503336,BY,53.70981,27.95339
Belgium,2050,11904701,BE,50.50389,4.46994
Belize,2050,516627,BZ,17.18988,-88.49765
Benin,2050,24433809,BJ,9.30769,2.31583
Bermuda,2050,56937,BM,32.32138,-64.75737
Bhutan,2050,882340,BT,27.51416,90.4336
Bolivia,2050,16110162,,,
Bosnia and Herzegovina,2050,2455167,BA,43.91589,17.67908
Botswana,2050,3437430,BW,-22.32847,24.68487
Brazil,2050,217489299,BR,-14.235,-51.92528
British Virgin Islands,2050,40340,,,
Brunei Darussalam,2050,519551,BN,4.53528,114.72767
Bulgaria,2050,5134951,BG,42.73388,25.48583
Burkina Faso,2050,37304383,BF,12.23833,-1.56159
Burundi,2050,24131720,BI,-3.37306,29.91889
Cabo Verde,2050,566134,CV,16.00208,-24.0132
Cambodia,2050,21931455,KH,12.56568,104.99096
Cameroon,2050,51096317,CM,7.36972,12.35472
Canada,2050,46603800,CA,56.13037,-106.34677
Caribbean small states,2050,4729688,,,
Cayman Islands,2050,103959,KY,19.51347,-80.56696
Central African Republic,2050,10616753,CF,6.61111,20.93944
Central Europe and the Baltics,2050,85973331,,,
Chad,2050,38857686,TD,15.45417,18.73221
Channel Islands,2050,167566,,,
Chile,2050,20320306,CL,-35.67515,-71.54297
China,2050,1242451200,CN,35.86166,104.1954
Colombia,2050,59385357,CO,4.57087,-74.29733
Comoros,2050,1307558,KM,-11.875,43.87222
"Congo, Dem. Rep.",2050,218246072,,,
"Congo, Rep.",2050,11006471,,,
Costa Rica,2050,5354150,CR,9.74892,-83.75343
Cote d'Ivoire,2050,55746985,,,
Croatia,2050,3220212,HR,45.1,15.2
Cuba,2050,9381999,CU,21.52176,-77.78117
Curacao,2050,146935,,,
Cyprus,2050,1508482,CY,35.12641,33.42986
Czechia,2050,9999211,CZ,49.81749,15.47296
Denmark,2050,6081255,DK,56.26392,9.50179
Djibouti,2050,1530540,DJ,11.82514,42.59028
Dominica,2050,63192,DM,15.415,-61.37098
Dominican Republic,2050,12996293,DO,18.73569,-70.16265
Early-demographic dividend,2050,4388756340,,,
East Asia & Pacific,2050,2281066121,,,
East Asia & Pacific (excluding high income),2050,2059226645,,,
East Asia & Pacific (IDA & IBRD countries),2050,2033470794,,,
Ecuador,2050,21337237,EC,-1.83124,-78.18341
"Egypt, Arab Rep.",2050,161630192,,,
El Salvador,2050,6663346,SV,13.79419,-88.89653
Equatorial Guinea,2050,3143728,GQ,1.6508,10.2679
Eritrea,2050,5696062,ER,15.17938,39.78233
Estonia,2050,1186244,EE,58.59527,25.01361
Eswatini,2050,1505331,SZ,-26.5225,31.46587
Ethiopia,2050,225021875,ET,9.145,40.48967
Euro area,2050,330207619,,,
Europe & Central Asia,2050,920438361,,,
Europe & Central Asia (excluding high income),2050,274511891,,,
Europe & Central Asia (IDA & IBRD countries),2050,466868993,,,
European Union,2050,418452220,,,
Faroe Islands,2050,62260,FO,61.89264,-6.91181
Fiji,2050,1000261,FJ,-16.57819,179.41441
Finland,2050,5336160,FI,61.92411,25.74815
Fragile and conflict affected situations,2050,1753377180,,,
France,2050,69591192,FR,46.22764,2.21375
French Polynesia,2050,284750,PF,-17.67974,-149.40684
Gabon,2050,4084533,GA,-0.80369,11.60944
"Gambia, The",2050,4301895,,,
Georgia,2050,3525160,GE,42.31541,43.35689
Germany,2050,76846312,DE,51.16569,10.45153
Ghana,2050,50553047,GH,7.94653,-1.02319
Gibraltar,2050,49798,GI,36.13774,-5.34537
Greece,2050,9134658,GR,39.07421,21.82431
Greenland,2050,..,GL,71.70694,-42.6043
Grenada,2050,113243,GD,12.26278,-61.60417
Guam,2050,191458,GU,13.4443,144.79373
Guatemala,2050,24670857,GT,15.78347,-90.23076
Guinea,2050,23404584,GN,9.94559,-9.69665
Guinea-Bissau,2050,3438608,GW,11.80375,-15.18041
Guyana,2050,940607,GY,4.86042,-58.93018
Haiti,2050,14710862,HT,18.97119,-72.28522
Heavily indebted poor countries (HIPC),2050,1646005659,,,
High income,2050,1427247675,,,
Honduras,2050,14846779,HN,15.2,-86.24191
"Hong Kong SAR, China",2050,6054473,,,
Hungary,2050,8621509,HU,47.16249,19.5033
IBRD only,2050,..,,,
Iceland,2050,439820,IS,64.96305,-19.02084
IDA & IBRD total,2050,8388957502,,,
IDA blend,2050,..,,,
IDA only,2050,..,,,
IDA total,2050,..,,,
India,2050,1679589259,IN,20.59368,78.96288
Indonesia,2050,320712949,ID,-0.78928,113.92133
"Iran, Islamic Rep.",2050,101861993,,,
Iraq,2050,71928750,IQ,33.22319,43.67929
Ireland,2050,6038066,IE,53.41291,-8.24389
Isle of Man,2050,77971,IM,54.23611,-4.54806
Israel,2050,13810846,IL,31.04605,34.85161
Italy,2050,51069164,IT,41.87194,12.56738
Jamaica,2050,2454940,JM,18.10958,-77.29751
Japan,2050,105025984,JP,36.20482,138.25292
Jordan,2050,16367354,JO,30.58516,36.23841
Kazakhstan,2050,26544265,KZ,48.01957,66.92368
Kenya,2050,83593239,KE,-0.02356,37.90619
Kiribati,2050,182621,KI,-3.37042,-168.73404
"Korea, Dem. People's Rep.",2050,25787127,,,
"Korea, Rep.",2050,44434192,,,
Kosovo,2050,1478047,,,
Kuwait,2050,6371108,KW,29.31166,47.48177
Kyrgyz Republic,2050,9667859,,,
Lao PDR,2050,9757285,,,
Late-demographic dividend,2050,2195156605,,,
Latin America & Caribbean,2050,728708610,,,
Latin America & Caribbean (excluding high income),2050,656971108,,,
Latin America & the Caribbean (IDA & IBRD countries),2050,715860916,,,
Latvia,2050,1504663,LV,56.87964,24.60319
Least developed countries: UN classification,2050,1947774991,,,
Lebanon,2050,6999260,LB,33.85472,35.86229
Lesotho,2050,2993077,LS,-29.60999,28.23361
Liberia,2050,8910530,LR,6.42806,-9.4295
Libya,2050,9260605,LY,26.3351,17.22833
Liechtenstein,2050,43366,LI,47.166,9.55537
Lithuania,2050,2272618,LT,55.16944,23.88128
Low & middle income,2050,7946406692,,,
Low income,2050,1093118895,,,
Lower middle income,2050,4039157066,,,
Luxembourg,2050,788324,LU,49.81527,6.12958
"Macao SAR, China",2050,621336,,,
Madagascar,2050,53185475,MG,-18.76695,46.86911
Malawi,2050,37361683,MW,-13.25431,34.30153
Malaysia,2050,44289772,MY,4.21048,101.97577
Maldives,2050,589962,MV,3.20278,73.22068
Mali,2050,46154079,ML,17.57069,-3.99617
Malta,2050,560476,MT,35.9375,14.37542
Marshall Islands,2050,25195,MH,7.13147,171.18448
Mauritania,2050,9415598,MR,21.00789,-10.94084
Mauritius,2050,1112371,MU,-20.3484,57.55215
Mexico,2050,148946274,MX,23.6345,-102.55278
"Micronesia, Fed. Sts.",2050,126408,,,
"Middle East, North Africa, Afghanistan & Pakistan",2050,1150102524,,,
"Middle East, North Africa, Afghanistan & Pakistan (excluding high income)",2050,1051341731,,,
"Middle East, North Africa, Afghanistan & Pakistan (IDA & IBRD)",2050,1043248523,,,
Middle income,2050,6853287797,,,
Moldova,2050,1786889,,,
Monaco,2050,36757,MC,43.7503,7.41284
Mongolia,2050,4547019,MN,46.8625,103.84666
Montenegro,2050,517470,ME,42.70868,19.37439
Morocco,2050,43440431,MA,31.7917,-7.09262
Mozambique,2050,63530952,MZ,-18.6657,35.52956
Myanmar,2050,58623232,MM,21.91397,95.95622
Namibia,2050,4512301,,,
Nauru,2050,15758,NR,-0.52278,166.9315
Nepal,2050,34642027,NP,28.39486,84.12401
Netherlands,2050,18555538,NL,52.13263,5.29127
New Caledonia,2050,340580,NC,-20.90431,165.61804
New Zealand,2050,5838680,NZ,-40.90056,174.88597
Nicaragua,2050,8756430,NI,12.86542,-85.20723
Niger,2050,52513876,NE,17.60779,8.08167
Nigeria,2050,359185556,NG,9.082,8.67528
North America,2050,419947233,,,
North Macedonia,2050,1483089,MK,41.60864,21.74528
Northern Mariana Islands,2050,42764,MP,17.33083,145.38469
Norway,2050,5835259,NO,60.47202,8.46895
Not classified,2050,..,,,
OECD members,2050,1427410789,,,
Oman,2050,7827002,OM,21.51258,55.92326
Other small states,2050,14645820,,,
Pacific island small states,2050,3596961,,,
Pakistan,2050,371863793,PK,30.37532,69.34512
Palau,2050,15518,PW,7.51498,134.58252
Panama,2050,5630680,PA,8.53798,-80.78213
Papua New Guinea,2050,14906590,PG,-6.31499,143.95555
Paraguay,2050,8640464,PY,-23.4425,-58.44383
Peru,2050,40583876,PE,-9.18997,-75.01515
Philippines,2050,134373439,PH,12.87972,121.77402
Poland,2050,31140384,PL,51.91944,19.14514
Portugal,2050,9944832,PT,39.39987,-8.22445
Post-demographic dividend,2050,1118969319,,,
Pre-demographic dividend,2050,1904370762,,,
Puerto Rico (US),2050,2441731,,,
Qatar,2050,3917517,QA,25.35483,51.18388
Romania,2050,16060403,RO,45.94316,24.96676
Russian Federation,2050,136801152,RU,61.52401,105.31876
Rwanda,2050,22707910,RW,-1.94028,29.87389
Samoa,2050,272726,WS,-13.75903,-172.10463
San Marino,2050,34093,SM,43.94236,12.45778
Sao Tome and Principe,2050,365115,ST,0.18636,6.61308
Saudi Arabia,2050,49185488,SA,23.88594,45.07916
Senegal,2050,30364954,SN,14.4974,-14.45236
Serbia,2050,5404517,RS,44.01652,21.00586
Seychelles,2050,131084,SC,-4.67957,55.49198
Sierra Leone,2050,12948325,SL,8.46056,-11.77989
Singapore,2050,6220505,SG,1.35208,103.81984
Sint Maarten (Dutch part),2050,51017,,,
Slovak Republic,2050,4858202,,,
Slovenia,2050,1974934,SI,46.15124,14.99546
Small states,2050,22972469,,,
Solomon Islands,2050,1309110,SB,-9.64571,160.15619
Somalia,2050,37206512,SO,5.15215,46.19962
South Africa,2050,79177328,ZA,-30.55948,22.93751
South Asia,2050,1953806727,,,
South Asia (IDA & IBRD),2050,1953806727,,,
South Sudan,2050,18341974,,,
Spain,2050,45214732,ES,40.46367,-3.74922
Sri Lanka,2050,23394042,LK,7.87305,80.7718
St. Kitts and Nevis,2050,44249,,,
St. Lucia,2050,172081,,,
St. Martin (French part),2050,18795,,,
St. Vincent and the Grenadines,2050,88942,,,
Sub-Saharan Africa,2050,2175701549,,,
Sub-Saharan Africa (excluding high income),2050,1950548590,,,
Sub-Saharan Africa (IDA & IBRD countries),2050,2175701549,,,
Sudan,2050,85206383,SD,12.86281,30.21764
Suriname,2050,733904,SR,3.91931,-56.02778
Sweden,2050,11206888,SE,60.12816,18.6435
Switzerland,2050,9350089,CH,46.81819,8.22751
Syrian Arab Republic,2050,37793372,SY,34.80208,38.99682
Tajikistan,2050,15574642,TJ,38.86103,71.27609
Tanzania,2050,129621102,,,
Thailand,2050,66382735,TH,15.87003,100.99254
Timor-Leste,2050,1889249,TL,-8.87422,125.72754
Togo,2050,15584778,TG,8.61954,0.82478
Tonga,2050,105195,TO,-21.17899,-175.19824
Trinidad and Tobago,2050,1273307,TT,10.6918,-61.2225
Tunisia,2050,13145141,TN,33.88692,9.5375
Turkiye,2050,88959016,,,
Turkmenistan,2050,9639708,TM,38.96972,59.55628
Turks and Caicos Islands,2050,50988,TC,21.69403,-71.79793
Tuvalu,2050,9781,TV,-7.10954,177.64933
Uganda,2050,85431202,UG,1.37333,32.29028
Ukraine,2050,31990132,UA,48.37943,31.16558
United Arab Emirates,2050,14989780,AE,23.42408,53.84782
United Kingdom,2050,75054400,GB,55.37805,-3.43597
United States,2050,373286496,US,37.09024,-95.71289
Upper middle income,2050,2814130731,,,
Uruguay,2050,3254354,UY,-32.52278,-55.76584
Uzbekistan,2050,52210755,UZ,41.37749,64.58526
Vanuatu,2050,534388,VU,-15.37671,166.95916
"Venezuela, RB",2050,31094883,,,
Viet Nam,2050,110008908,VN,14.05832,108.2772
Virgin Islands (U.S.),2050,88701,,,
West Bank and Gaza,2050,8093208,,,
World,2050,9629771125,,,
"Yemen, Rep.",2050,70976403,,,
Zambia,2050,38083385,ZM,-13.1339,27.84933
Zimbabwe,2050,25866385,ZW,-19.01544,29.15486
Afghanistan,2049,75515602,AF,33.93911,67.70995
Africa Eastern and Southern,2049,1300032826,,,
Africa Western and Central,2049,841155462,,,
Albania,2049,2184287,AL,41.15333,20.16833
Algeria,2049,59136158,DZ,28.03389,1.65963
American Samoa,2049,37708,AS,-14.27097,-170.13222
Andorra,2049,82641,AD,42.54625,1.60155
Angola,2049,72701385,AO,-11.20269,17.87389
Antigua and Barbuda,2049,95380,AG,17.06082,-61.79643
Arab World,2049,710290598,,,
Argentina,2049,48308274,AR,-38.4161,-63.61667
Armenia,2049,2578168,AM,40.0691,45.03819
Aruba,2049,99507,AW,12.52111,-69.96834
Australia,2049,32587112,AU,-25.2744,133.77514
Austria,2049,8729020,AT,47.51623,14.55007
Azerbaijan,2049,11043383,AZ,40.14311,47.57693
"Bahamas, The",2049,424240,,,
Bahrain,2049,2080420,BH,25.93041,50.63777
Bangladesh,2049,213638540,BD,23.68499,90.35633
Barbados,2049,265555,BB,13.19389,-59.5432
Belarus,2049,7564981,BY,53.70981,27.95339
Belgium,2049,11915585,BE,50.50389,4.46994
Belize,2049,514719,BZ,17.18988,-88.49765
Benin,2049,24038607,BJ,9.30769,2.31583
Bermuda,2049,57429,BM,32.32138,-64.75737
Bhutan,2049,881435,BT,27.51416,90.4336
Bolivia,2049,16002810,,,
Bosnia and Herzegovina,2049,2484044,BA,43.91589,17.67908
Botswana,2049,3408768,BW,-22.32847,24.68487
Brazil,2049,217897826,BR,-14.235,-51.92528
British Virgin Islands,2049,40517,,,
Brunei Darussalam,2049,518691,BN,4.53528,114.72767
Bulgaria,2049,5181273,BG,42.73388,25.48583
Burkina Faso,2049,36823432,BF,12.23833,-1.56159
Burundi,2049,23748952,BI,-3.37306,29.91889
Cabo Verde,2049,565898,CV,16.00208,-24.0132
Cambodia,2049,21812188,KH,12.56568,104.99096
Cameroon,2049,50203270,CM,7.36972,12.35472
Canada,2049,46449684,CA,56.13037,-106.34677
Caribbean small states,2049,4734441,,,
Cayman Islands,2049,103090,KY,19.51347,-80.56696
Central African Republic,2049,10400626,CF,6.61111,20.93944
Central Europe and the Baltics,2049,86521588,,,
Chad,2049,38088925,TD,15.45417,18.73221
Channel Islands,2049,167914,,,
Chile,2049,20366442,CL,-35.67515,-71.54297
China,2049,1253084544,CN,35.86166,104.1954
Colombia,2049,59375010,CO,4.57087,-74.29733
Comoros,2049,1290369,KM,-11.875,43.87222
"Congo, Dem. Rep.",2049,213497692,,,
"Congo, Rep.",2049,10813655,,,
Costa Rica,2049,5362650,CR,9.74892,-83.75343
Cote d'Ivoire,2049,54739406,,,
Croatia,2049,3245647,HR,45.1,15.2
Cuba,2049,9463927,CU,21.52176,-77.78117
Curacao,2049,147502,,,
Cyprus,2049,1507310,CY,35.12641,33.42986
Czechia,2049,10029417,CZ,49.81749,15.47296
Denmark,2049,6085716,DK,56.26392,9.50179
Djibouti,2049,1519725,DJ,11.82514,42.59028
Dominica,2049,63306,DM,15.415,-61.37098
Dominican Republic,2049,12964838,DO,18.73569,-70.16265
Early-demographic dividend,2049,4365962146,,,
East Asia & Pacific,2049,2291980989,,,
East Asia & Pacific (excluding high income),2049,2068916531,,,
East Asia & Pacific (IDA & IBRD countries),2049,2043068508,,,
Ecuador,2049,21270656,EC,-1.83124,-78.18341
"Egypt, Arab Rep.",2049,160161614,,,
El Salvador,2049,6666756,SV,13.79419,-88.89653
Equatorial Guinea,2049,3097638,GQ,1.6508,10.2679
Eritrea,2049,5617356,ER,15.17938,39.78233
Estonia,2049,1192726,EE,58.59527,25.01361
Eswatini,2049,1499435,SZ,-26.5225,31.46587
Ethiopia,2049,221377337,ET,9.145,40.48967
Euro area,2049,331378737,,,
Europe & Central Asia,2049,921592631,,,
Europe & Central Asia (excluding high income),2049,274041750,,,
Europe & Central Asia (IDA & IBRD countries),2049,466933205,,,
European Union,2049,420059440,,,
Faroe Islands,2049,62101,FO,61.89264,-6.91181
Fiji,2049,999546,FJ,-16.57819,179.41441
Finland,2049,5349113,FI,61.92411,25.74815
Fragile and conflict affected situations,2049,1727906346,,,
France,2049,69597128,FR,46.22764,2.21375
French Polynesia,2049,285644,PF,-17.67974,-149.40684
Gabon,2049,4021472,GA,-0.80369,11.60944
"Gambia, The",2049,4247714,,,
Georgia,2049,3533194,GE,42.31541,43.35689
Germany,2049,77105640,DE,51.16569,10.45153
Ghana,2049,49984440,GH,7.94653,-1.02319
Gibraltar,2049,49657,GI,36.13774,-5.34537
Greece,2049,9191704,GR,39.07421,21.82431
Greenland,2049,..,GL,71.70694,-42.6043
Grenada,2049,113647,GD,12.26278,-61.60417
Guam,2049,190727,GU,13.4443,144.79373
Guatemala,2049,24491014,GT,15.78347,-90.23076
Guinea,2049,23092613,GN,9.94559,-9.69665
Guinea-Bissau,2049,3392568,GW,11.80375,-15.18041
Guyana,2049,938066,GY,4.86042,-58.93018
Haiti,2049,14624498,HT,18.97119,-72.28522
Heavily indebted poor countries (HIPC),2049,1617845563,,,
High income,2049,1427989403,,,
Honduras,2049,14722480,HN,15.2,-86.24191
"Hong Kong SAR, China",2049,6134954,,,
Hungary,2049,8652094,HU,47.16249,19.5033
IBRD only,2049,..,,,
Iceland,2049,439837,IS,64.96305,-19.02084
IDA & IBRD total,2049,8347577524,,,
IDA blend,2049,..,,,
IDA only,2049,..,,,
IDA total,2049,..,,,
India,2049,1675619894,IN,20.59368,78.96288
Indonesia,2049,320173250,ID,-0.78928,113.92133
"Iran, Islamic Rep.",2049,101748542,,,
Iraq,2049,70999568,IQ,33.22319,43.67929
Ireland,2049,6033411,IE,53.41291,-8.24389
Isle of Man,2049,78401,IM,54.23611,-4.54806
Israel,2049,13651913,IL,31.04605,34.85161
Italy,2049,51477072,IT,41.87194,12.56738
Jamaica,2049,2479745,JM,18.10958,-77.29751
Japan,2049,105706600,JP,36.20482,138.25292
Jordan,2049,16197530,JO,30.58516,36.23841
Kazakhstan,2049,26328899,KZ,48.01957,66.92368
Kenya,2049,82721771,KE,-0.02356,37.90619
Kiribati,2049,180911,KI,-3.37042,-168.73404
"Korea, Dem. People's Rep.",2049,25879257,,,
"Korea, Rep.",2049,44899988,,,
Kosovo,2049,1483790,,,
Kuwait,2049,6318136,KW,29.31166,47.48177
Kyrgyz Republic,2049,9586299,,,
Lao PDR,2049,9709614,,,
Late-demographic dividend,2049,2206388183,,,
Latin America & Caribbean,2049,728157287,,,
Latin America & Caribbean (excluding high income),2049,656375705,,,
Latin America & the Caribbean (IDA & IBRD countries),2049,715191889,,,
Latvia,2049,1517096,LV,56.87964,24.60319
Least developed countries: UN classification,2049,1918158678,,,
Lebanon,2049,6972886,LB,33.85472,35.86229
Lesotho,2049,2972157,LS,-29.60999,28.23361
Liberia,2049,8795828,LR,6.42806,-9.4295
Libya,2049,9208613,LY,26.3351,17.22833
Liechtenstein,2049,43349,LI,47.166,9.55537
Lithuania,2049,2295819,LT,55.16944,23.88128
Low & middle income,2049,7908199081,,,
Low income,2049,1074680264,,,
Lower middle income,2049,4011142448,,,
Luxembourg,2049,786790,LU,49.81527,6.12958
"Macao SAR, China",2049,624859,,,
Madagascar,2049,52351990,MG,-18.76695,46.86911
Malawi,2049,36761003,MW,-13.25431,34.30153
Malaysia,2049,44065539,MY,4.21048,101.97577
Maldives,2049,587981,MV,3.20278,73.22068
Mali,2049,45279774,ML,17.57069,-3.99617
Malta,2049,562465,MT,35.9375,14.37542
Marshall Islands,2049,25307,MH,7.13147,171.18448
Mauritania,2049,9240178,MR,21.00789,-10.94084
Mauritius,2049,1121396,MU,-20.3484,57.55215
Mexico,2049,148677897,MX,23.6345,-102.55278
"Micronesia, Fed. Sts.",2049,125953,,,
"Middle East, North Africa, Afghanistan & Pakistan",2049,1138279953,,,
"Middle East, North Africa, Afghanistan & Pakistan (excluding high income)",2049,1040565807,,,
"Middle East, North Africa, Afghanistan & Pakistan (IDA & IBRD)",2049,1032576022,,,
Middle income,2049,6833518817,,,
Moldova,2049,1804438,,,
Monaco,2049,36681,MC,43.7503,7.41284
Mongolia,2049,4511962,MN,46.8625,103.84666
Montenegro,2049,521580,ME,42.70868,19.37439
Morocco,2049,43355720,MA,31.7917,-7.09262
Mozambique,2049,62397014,MZ,-18.6657,35.52956
Myanmar,2049,58633122,MM,21.91397,95.95622
Namibia,2049,4460502,,,
Nauru,2049,15601,NR,-0.52278,166.9315
Nepal,2049,34500202,NP,28.39486,84.12401
Netherlands,2049,18576876,NL,52.13263,5.29127
New Caledonia,2049,339643,NC,-20.90431,165.61804
New Zealand,2049,5827367,NZ,-40.90056,174.88597
Nicaragua,2049,8708924,NI,12.86542,-85.20723
Niger,2049,51482566,NE,17.60779,8.08167
Nigeria,2049,354792425,NG,9.082,8.67528
North America,2049,418807017,,,
North Macedonia,2049,1495797,MK,41.60864,21.74528
Northern Mariana Islands,2049,42761,MP,17.33083,145.38469
Norway,2049,5835612,NO,60.47202,8.46895
Not classified,2049,..,,,
OECD members,2049,1428225172,,,
Oman,2049,7734350,OM,21.51258,55.92326
Other small states,2049,14608465,,,
Pacific island small states,2049,3566506,,,
Pakistan,2049,367344425,PK,30.37532,69.34512
Palau,2049,15633,PW,7.51498,134.58252
Panama,2049,5601667,PA,8.53798,-80.78213
Papua New Guinea,2049,14763603,PG,-6.31499,143.95555
Paraguay,2049,8591713,PY,-23.4425,-58.44383
Peru,2049,40443281,PE,-9.18997,-75.01515
Philippines,2049,134089000,PH,12.87972,121.77402
Poland,2049,31359186,PL,51.91944,19.14514
Portugal,2049,9981518,PT,39.39987,-8.22445
Post-demographic dividend,2049,1120501918,,,
Pre-demographic dividend,2049,1873052281,,,
Puerto Rico (US),2049,2476663,,,
Qatar,2049,3870323,QA,25.35483,51.18388
Romania,2049,16182453,RO,45.94316,24.96676
Russian Federation,2049,136922896,RU,61.52401,105.31876
Rwanda,2049,22403893,RW,-1.94028,29.87389
Samoa,2049,270298,WS,-13.75903,-172.10463
San Marino,2049,34137,SM,43.94236,12.45778
Sao Tome and Principe,2049,360361,ST,0.18636,6.61308
Saudi Arabia,2049,48680016,SA,23.88594,45.07916
Senegal,2049,29911843,SN,14.4974,-14.45236
Serbia,2049,5445150,RS,44.01652,21.00586
Seychelles,2049,131275,SC,-4.67957,55.49198
Sierra Leone,2049,12805142,SL,8.46056,-11.77989
Singapore,2049,6238832,SG,1.35208,103.81984
Sint Maarten (Dutch part),2049,51016,,,
Slovak Republic,2049,4883330,,,
Slovenia,2049,1982547,SI,46.15124,14.99546
Small states,2049,22909412,,,
Solomon Islands,2049,1292425,SB,-9.64571,160.15619
Somalia,2049,36474691,SO,5.15215,46.19962
South Africa,2049,78699586,ZA,-30.55948,22.93751
South Asia,2049,1948619612,,,
South Asia (IDA & IBRD),2049,1948619612,,,
South Sudan,2049,18142896,,,
Spain,2049,45447940,ES,40.46367,-3.74922
Sri Lanka,2049,23391560,LK,7.87305,80.7718
St. Kitts and Nevis,2049,44481,,,
St. Lucia,2049,172990,,,
St. Martin (French part),2049,18803,,,
St. Vincent and the Grenadines,2049,89365,,,
Sub-Saharan Africa,2049,2141188288,,,
Sub-Saharan Africa (excluding high income),2049,1919679676,,,
Sub-Saharan Africa (IDA & IBRD countries),2049,2141188288,,,
Sudan,2049,83828354,SD,12.86281,30.21764
Suriname,2049,732029,SR,3.91931,-56.02778
Sweden,2049,11190564,SE,60.12816,18.6435
Switzerland,2049,9352576,CH,46.81819,8.22751
Syrian Arab Republic,2049,37477690,SY,34.80208,38.99682
Tajikistan,2049,15408033,TJ,38.86103,71.27609
Tanzania,2049,126981406,,,
Thailand,2049,66767317,TH,15.87003,100.99254
Timor-Leste,2049,1873844,TL,-8.87422,125.72754
Togo,2049,15337442,TG,8.61954,0.82478
Tonga,2049,104972,TO,-21.17899,-175.19824
Trinidad and Tobago,2049,1280663,TT,10.6918,-61.2225
Tunisia,2049,13138145,TN,33.88692,9.5375
Turkiye,2049,89064184,,,
Turkmenistan,2049,9580901,TM,38.96972,59.55628
Turks and Caicos Islands,2049,51011,TC,21.69403,-71.79793
Tuvalu,2049,9714,TV,-7.10954,177.64933
Uganda,2049,84130053,UG,1.37333,32.29028
Ukraine,2049,32338511,UA,48.37943,31.16558
United Arab Emirates,2049,14816523,AE,23.42408,53.84782
United Kingdom,2049,74948104,GB,55.37805,-3.43597
United States,2049,372299904,US,37.09024,-95.71289
Upper middle income,2049,2822376369,,,
Uruguay,2049,3265251,UY,-32.52278,-55.76584
Uzbekistan,2049,51596111,UZ,41.37749,64.58526
Vanuatu,2049,526146,VU,-15.37671,166.95916
"Venezuela, RB",2049,31059956,,,
Viet Nam,2049,110018019,VN,14.05832,108.2772
Virgin Islands (U.S.),2049,89122,,,
West Bank and Gaza,2049,7989785,,,
World,2049,9588625777,,,
"Yemen, Rep.",2049,69799804,,,
Zambia,2049,37434683,ZM,-13.1339,27.84933
Zimbabwe,2049,25518501,ZW,-19.01544,29.15486
Afghanistan,2048,74109735,AF,33.93911,67.70995
Africa Eastern and Southern,2048,1277967614,,,
Africa Western and Central,2048,828594472,,,
Albania,2048,2206045,AL,41.15333,20.16833
Algeria,2048,58690885,DZ,28.03389,1.65963
American Samoa,2048,37864,AS,-14.27097,-170.13222
Andorra,2048,83087,AD,42.54625,1.60155
Angola,2048,71118784,AO,-11.20269,17.87389
Antigua and Barbuda,2048,95674,AG,17.06082,-61.79643
Arab World,2048,702248459,,,
Argentina,2048,48296026,AR,-38.4161,-63.61667
Armenia,2048,2594123,AM,40.0691,45.03819
Aruba,2048,100058,AW,12.52111,-69.96834
Australia,2048,32376688,AU,-25.2744,133.77514
Austria,2048,8760519,AT,47.51623,14.55007
Azerbaijan,2048,11039525,AZ,40.14311,47.57693
"Bahamas, The",2048,424118,,,
Bahrain,2048,2062259,BH,25.93041,50.63777
Bangladesh,2048,212537928,BD,23.68499,90.35633
Barbados,2048,266890,BB,13.19389,-59.5432
Belarus,2048,7626182,BY,53.70981,27.95339
Belgium,2048,11925495,BE,50.50389,4.46994
Belize,2048,512649,BZ,17.18988,-88.49765
Benin,2048,23642191,BJ,9.30769,2.31583
Bermuda,2048,57910,BM,32.32138,-64.75737
Bhutan,2048,880490,BT,27.51416,90.4336
Bolivia,2048,15892253,,,
Bosnia and Herzegovina,2048,2512793,BA,43.91589,17.67908
Botswana,2048,3379112,BW,-22.32847,24.68487
Brazil,2048,218258220,BR,-14.235,-51.92528
British Virgin Islands,2048,40650,,,
Brunei Darussalam,2048,517702,BN,4.53528,114.72767
Bulgaria,2048,5227683,BG,42.73388,25.48583
Burkina Faso,2048,36336706,BF,12.23833,-1.56159
Burundi,2048,23358497,BI,-3.37306,29.91889
Cabo Verde,2048,565508,CV,16.00208,-24.0132
Cambodia,2048,21687185,KH,12.56568,104.99096
Cameroon,2048,49308765,CM,7.36972,12.35472
Canada,2048,46310040,CA,56.13037,-106.34677
Caribbean small states,2048,4738369,,,
Cayman Islands,2048,102198,KY,19.51347,-80.56696
Central African Republic,2048,10186017,CF,6.61111,20.93944
Central Europe and the Baltics,2048,87061698,,,
Chad,2048,37317470,TD,15.45417,18.73221
Channel Islands,2048,168217,,,
Chile,2048,20408336,CL,-35.67515,-71.54297
China,2048,1263202944,CN,35.86166,104.1954
Colombia,2048,59351253,CO,4.57087,-74.29733
Comoros,2048,1273038,KM,-11.875,43.87222
"Congo, Dem. Rep.",2048,208783693,,,
"Congo, Rep.",2048,10621399,,,
Costa Rica,2048,5369577,CR,9.74892,-83.75343
Cote d'Ivoire,2048,53730596,,,
Croatia,2048,3270985,HR,45.1,15.2
Cuba,2048,9544141,CU,21.52176,-77.78117
Curacao,2048,148079,,,
Cyprus,2048,1505915,CY,35.12641,33.42986
Czechia,2048,10057239,CZ,49.81749,15.47296
Denmark,2048,6089561,DK,56.26392,9.50179
Djibouti,2048,1508876,DJ,11.82514,42.59028
Dominica,2048,63408,DM,15.415,-61.37098
Dominican Republic,2048,12931166,DO,18.73569,-70.16265
Early-demographic dividend,2048,4342341204,,,
East Asia & Pacific,2048,2302157084,,,
East Asia & Pacific (excluding high income),2048,2077880883,,,
East Asia & Pacific (IDA & IBRD countries),2048,2051944483,,,
Ecuador,2048,21198613,EC,-1.83124,-78.18341
"Egypt, Arab Rep.",2048,158657389,,,
El Salvador,2048,6669222,SV,13.79419,-88.89653
Equatorial Guinea,2048,3051491,GQ,1.6508,10.2679
Eritrea,2048,5537542,ER,15.17938,39.78233
Estonia,2048,1199089,EE,58.59527,25.01361
Eswatini,2048,1493023,SZ,-26.5225,31.46587
Ethiopia,2048,217710205,ET,9.145,40.48967
Euro area,2048,332543458,,,
Europe & Central Asia,2048,922643188,,,
Europe & Central Asia (excluding high income),2048,273512821,,,
Europe & Central Asia (IDA & IBRD countries),2048,466917410,,,
European Union,2048,421652607,,,
Faroe Islands,2048,61947,FO,61.89264,-6.91181
Fiji,2048,998560,FJ,-16.57819,179.41441
Finland,2048,5361807,FI,61.92411,25.74815
Fragile and conflict affected situations,2048,1702296187,,,
France,2048,69597760,FR,46.22764,2.21375
French Polynesia,2048,286443,PF,-17.67974,-149.40684
Gabon,2048,3958287,GA,-0.80369,11.60944
"Gambia, The",2048,4192849,,,
Georgia,2048,3540591,GE,42.31541,43.35689
Germany,2048,77379352,DE,51.16569,10.45153
Ghana,2048,49408510,GH,7.94653,-1.02319
Gibraltar,2048,49504,GI,36.13774,-5.34537
Greece,2048,9248798,GR,39.07421,21.82431
Greenland,2048,..,GL,71.70694,-42.6043
Grenada,2048,114031,GD,12.26278,-61.60417
Guam,2048,189987,GU,13.4443,144.79373
Guatemala,2048,24305650,GT,15.78347,-90.23076
Guinea,2048,22780054,GN,9.94559,-9.69665
Guinea-Bissau,2048,3345863,GW,11.80375,-15.18041
Guyana,2048,935333,GY,4.86042,-58.93018
Haiti,2048,14535454,HT,18.97119,-72.28522
Heavily indebted poor countries (HIPC),2048,1589594215,,,
High income,2048,1428674147,,,
Honduras,2048,14595537,HN,15.2,-86.24191
"Hong Kong SAR, China",2048,6223085,,,
Hungary,2048,8682743,HU,47.16249,19.5033
IBRD only,2048,..,,,
Iceland,2048,439782,IS,64.96305,-19.02084
IDA & IBRD total,2048,8304559572,,,
IDA blend,2048,..,,,
IDA only,2048,..,,,
IDA total,2048,..,,,
India,2048,1671309726,IN,20.59368,78.96288
Indonesia,2048,319554653,ID,-0.78928,113.92133
"Iran, Islamic Rep.",2048,101601929,,,
Iraq,2048,70050118,IQ,33.22319,43.67929
Ireland,2048,6025910,IE,53.41291,-8.24389
Isle of Man,2048,78799,IM,54.23611,-4.54806
Israel,2048,13493519,IL,31.04605,34.85161
Italy,2048,51872276,IT,41.87194,12.56738
Jamaica,2048,2504199,JM,18.10958,-77.29751
Japan,2048,106373512,JP,36.20482,138.25292
Jordan,2048,16021390,JO,30.58516,36.23841
Kazakhstan,2048,26106840,KZ,48.01957,66.92368
Kenya,2048,81837664,KE,-0.02356,37.90619
Kiribati,2048,179148,KI,-3.37042,-168.73404
"Korea, Dem. People's Rep.",2048,25967589,,,
"Korea, Rep.",2048,45357404,,,
Kosovo,2048,1488792,,,
Kuwait,2048,6265198,KW,29.31166,47.48177
Kyrgyz Republic,2048,9503520,,,
Lao PDR,2048,9659039,,,
Late-demographic dividend,2048,2216923716,,,
Latin America & Caribbean,2048,727448215,,,
Latin America & Caribbean (excluding high income),2048,655633223,,,
Latin America & the Caribbean (IDA & IBRD countries),2048,714365978,,,
Latvia,2048,1529612,LV,56.87964,24.60319
Least developed countries: UN classification,2048,1888415987,,,
Lebanon,2048,6944194,LB,33.85472,35.86229
Lesotho,2048,2950413,LS,-29.60999,28.23361
Liberia,2048,8673949,LR,6.42806,-9.4295
Libya,2048,9154065,LY,26.3351,17.22833
Liechtenstein,2048,43324,LI,47.166,9.55537
Lithuania,2048,2318344,LT,55.16944,23.88128
Low & middle income,2048,7868403558,,,
Low income,2048,1056188903,,,
Lower middle income,2048,3982477331,,,
Luxembourg,2048,785058,LU,49.81527,6.12958
"Macao SAR, China",2048,627685,,,
Madagascar,2048,51517353,MG,-18.76695,46.86911
Malawi,2048,36165760,MW,-13.25431,34.30153
Malaysia,2048,43831577,MY,4.21048,101.97577
Maldives,2048,585720,MV,3.20278,73.22068
Mali,2048,44405719,ML,17.57069,-3.99617
Malta,2048,564209,MT,35.9375,14.37542
Marshall Islands,2048,25427,MH,7.13147,171.18448
Mauritania,2048,9064219,MR,21.00789,-10.94084
Mauritius,2048,1130329,MU,-20.3484,57.55215
Mexico,2048,148372231,MX,23.6345,-102.55278
"Micronesia, Fed. Sts.",2048,125485,,,
"Middle East, North Africa, Afghanistan & Pakistan",2048,1126269962,,,
"Middle East, North Africa, Afghanistan & Pakistan (excluding high income)",2048,1029603667,,,
"Middle East, North Africa, Afghanistan & Pakistan (IDA & IBRD)",2048,1021717066,,,
Middle income,2048,6812214655,,,
Moldova,2048,1822651,,,
Monaco,2048,36620,MC,43.7503,7.41284
Mongolia,2048,4474964,MN,46.8625,103.84666
Montenegro,2048,525705,ME,42.70868,19.37439
Morocco,2048,43262402,MA,31.7917,-7.09262
Mozambique,2048,61254584,MZ,-18.6657,35.52956
Myanmar,2048,58632726,MM,21.91397,95.95622
Namibia,2048,4409449,,,
Nauru,2048,15438,NR,-0.52278,166.9315
Nepal,2048,34352079,NP,28.39486,84.12401
Netherlands,2048,18598008,NL,52.13263,5.29127
New Caledonia,2048,338655,NC,-20.90431,165.61804
New Zealand,2048,5818737,NZ,-40.90056,174.88597
Nicaragua,2048,8659284,NI,12.86542,-85.20723
Niger,2048,50452204,NE,17.60779,8.08167
Nigeria,2048,350347769,NG,9.082,8.67528
North America,2048,417676430,,,
North Macedonia,2048,1508399,MK,41.60864,21.74528
Northern Mariana Islands,2048,42740,MP,17.33083,145.38469
Norway,2048,5834841,NO,60.47202,8.46895
Not classified,2048,..,,,
OECD members,2048,1428917842,,,
Oman,2048,7642330,OM,21.51258,55.92326
Other small states,2048,14568935,,,
Pacific island small states,2048,3535525,,,
Pakistan,2048,362796531,PK,30.37532,69.34512
Palau,2048,15751,PW,7.51498,134.58252
Panama,2048,5571398,PA,8.53798,-80.78213
Papua New Guinea,2048,14617371,PG,-6.31499,143.95555
Paraguay,2048,8541344,PY,-23.4425,-58.44383
Peru,2048,40294855,PE,-9.18997,-75.01515
Philippines,2048,133759430,PH,12.87972,121.77402
Poland,2048,31574518,PL,51.91944,19.14514
Portugal,2048,10018955,PT,39.39987,-8.22445
Post-demographic dividend,2048,1122002658,,,
Pre-demographic dividend,2048,1841618508,,,
Puerto Rico (US),2048,2512620,,,
Qatar,2048,3823757,QA,25.35483,51.18388
Romania,2048,16303691,RO,45.94316,24.96676
Russian Federation,2048,137027712,RU,61.52401,105.31876
Rwanda,2048,22086122,RW,-1.94028,29.87389
Samoa,2048,267838,WS,-13.75903,-172.10463
San Marino,2048,34194,SM,43.94236,12.45778
Sao Tome and Principe,2048,355582,ST,0.18636,6.61308
Saudi Arabia,2048,48172648,SA,23.88594,45.07916
Senegal,2048,29457240,SN,14.4974,-14.45236
Serbia,2048,5486230,RS,44.01652,21.00586
Seychelles,2048,131466,SC,-4.67957,55.49198
Sierra Leone,2048,12659612,SL,8.46056,-11.77989
Singapore,2048,6255768,SG,1.35208,103.81984
Sint Maarten (Dutch part),2048,50990,,,
Slovak Republic,2048,4908042,,,
Slovenia,2048,1989752,SI,46.15124,14.99546
Small states,2048,22842829,,,
Solomon Islands,2048,1275593,SB,-9.64571,160.15619
Somalia,2048,35743967,SO,5.15215,46.19962
South Africa,2048,78215322,ZA,-30.55948,22.93751
South Asia,2048,1943052549,,,
South Asia (IDA & IBRD),2048,1943052549,,,
South Sudan,2048,17938440,,,
Spain,2048,45683572,ES,40.46367,-3.74922
Sri Lanka,2048,23386606,LK,7.87305,80.7718
St. Kitts and Nevis,2048,44699,,,
St. Lucia,2048,173875,,,
St. Martin (French part),2048,18799,,,
St. Vincent and the Grenadines,2048,89772,,,
Sub-Saharan Africa,2048,2106562086,,,
Sub-Saharan Africa (excluding high income),2048,1888720415,,,
Sub-Saharan Africa (IDA & IBRD countries),2048,2106562086,,,
Sudan,2048,82463196,SD,12.86281,30.21764
Suriname,2048,730040,SR,3.91931,-56.02778
Sweden,2048,11173714,SE,60.12816,18.6435
Switzerland,2048,9354126,CH,46.81819,8.22751
Syrian Arab Republic,2048,37171022,SY,34.80208,38.99682
Tajikistan,2048,15236597,TJ,38.86103,71.27609
Tanzania,2048,124351302,,,
Thailand,2048,67136738,TH,15.87003,100.99254
Timor-Leste,2048,1858307,TL,-8.87422,125.72754
Togo,2048,15088054,TG,8.61954,0.82478
Tonga,2048,104743,TO,-21.17899,-175.19824
Trinidad and Tobago,2048,1287880,TT,10.6918,-61.2225
Tunisia,2048,13127665,TN,33.88692,9.5375
Turkiye,2048,89139376,,,
Turkmenistan,2048,9518553,TM,38.96972,59.55628
Turks and Caicos Islands,2048,51019,TC,21.69403,-71.79793
Tuvalu,2048,9648,TV,-7.10954,177.64933
Uganda,2048,82812095,UG,1.37333,32.29028
Ukraine,2048,32680966,UA,48.37943,31.16558
United Arab Emirates,2048,14642375,AE,23.42408,53.84782
United Kingdom,2048,74829816,GB,55.37805,-3.43597
United States,2048,371308480,US,37.09024,-95.71289
Upper middle income,2048,2829737324,,,
Uruguay,2048,3275505,UY,-32.52278,-55.76584
Uzbekistan,2048,50975933,UZ,41.37749,64.58526
Vanuatu,2048,517894,VU,-15.37671,166.95916
"Venezuela, RB",2048,31021604,,,
Viet Nam,2048,109994024,VN,14.05832,108.2772
Virgin Islands (U.S.),2048,89565,,,
West Bank and Gaza,2048,7886601,,,
World,2048,9545809514,,,
"Yemen, Rep.",2048,68620865,,,
Zambia,2048,36782266,ZM,-13.1339,27.84933
Zimbabwe,2048,25168410,ZW,-19.01544,29.15486
Afghanistan,2047,72756311,AF,33.93911,67.70995
Africa Eastern and Southern,2047,1255878490,,,
Africa Western and Central,2047,815953577,,,
Albania,2047,2227873,AL,41.15333,20.16833
Algeria,2047,58234170,DZ,28.03389,1.65963
American Samoa,2047,38026,AS,-14.27097,-170.13222
Andorra,2047,83515,AD,42.54625,1.60155
Angola,2047,69554170,AO,-11.20269,17.87389
Antigua and Barbuda,2047,95942,AG,17.06082,-61.79643
Arab World,2047,694141365,,,
Argentina,2047,48272492,AR,-38.4161,-63.61667
Armenia,2047,2610323,AM,40.0691,45.03819
Aruba,2047,100583,AW,12.52111,-69.96834
Australia,2047,32155298,AU,-25.2744,133.77514
Austria,2047,8790461,AT,47.51623,14.55007
Azerbaijan,2047,11032095,AZ,40.14311,47.57693
"Bahamas, The",2047,423947,,,
Bahrain,2047,2044033,BH,25.93041,50.63777
Bangladesh,2047,211402170,BD,23.68499,90.35633
Barbados,2047,268224,BB,13.19389,-59.5432
Belarus,2047,7687270,BY,53.70981,27.95339
Belgium,2047,11934089,BE,50.50389,4.46994
Belize,2047,510428,BZ,17.18988,-88.49765
Benin,2047,23245139,BJ,9.30769,2.31583
Bermuda,2047,58377,BM,32.32138,-64.75737
Bhutan,2047,879456,BT,27.51416,90.4336
Bolivia,2047,15778746,,,
Bosnia and Herzegovina,2047,2541520,BA,43.91589,17.67908
Botswana,2047,3348499,BW,-22.32847,24.68487
Brazil,2047,218565368,BR,-14.235,-51.92528
British Virgin Islands,2047,40761,,,
Brunei Darussalam,2047,516606,BN,4.53528,114.72767
Bulgaria,2047,5274205,BG,42.73388,25.48583
Burkina Faso,2047,35842178,BF,12.23833,-1.56159
Burundi,2047,22970065,BI,-3.37306,29.91889
Cabo Verde,2047,565021,CV,16.00208,-24.0132
Cambodia,2047,21558221,KH,12.56568,104.99096
Cameroon,2047,48413783,CM,7.36972,12.35472
Canada,2047,46157360,CA,56.13037,-106.34677
Caribbean small states,2047,4741408,,,
Cayman Islands,2047,101269,KY,19.51347,-80.56696
Central African Republic,2047,9972764,CF,6.61111,20.93944
Central Europe and the Baltics,2047,87594584,,,
Chad,2047,36546920,TD,15.45417,18.73221
Channel Islands,2047,168480,,,
Chile,2047,20443723,CL,-35.67515,-71.54297
China,2047,1272739328,CN,35.86166,104.1954
Colombia,2047,59313134,CO,4.57087,-74.29733
Comoros,2047,1255711,KM,-11.875,43.87222
"Congo, Dem. Rep.",2047,204105927,,,
"Congo, Rep.",2047,10427912,,,
Costa Rica,2047,5374951,CR,9.74892,-83.75343
Cote d'Ivoire,2047,52721463,,,
Croatia,2047,3296403,HR,45.1,15.2
Cuba,2047,9622709,CU,21.52176,-77.78117
Curacao,2047,148626,,,
Cyprus,2047,1504225,CY,35.12641,33.42986
Czechia,2047,10084183,CZ,49.81749,15.47296
Denmark,2047,6092688,DK,56.26392,9.50179
Djibouti,2047,1498041,DJ,11.82514,42.59028
Dominica,2047,63502,DM,15.415,-61.37098
Dominican Republic,2047,12895160,DO,18.73569,-70.16265
Early-demographic dividend,2047,4317856837,,,
East Asia & Pacific,2047,2311474496,,,
East Asia & Pacific (excluding high income),2047,2086044354,,,
East Asia & Pacific (IDA & IBRD countries),2047,2060023397,,,
Ecuador,2047,21121175,EC,-1.83124,-78.18341
"Egypt, Arab Rep.",2047,157114405,,,
El Salvador,2047,6669836,SV,13.79419,-88.89653
Equatorial Guinea,2047,3005559,GQ,1.6508,10.2679
Eritrea,2047,5456501,ER,15.17938,39.78233
Estonia,2047,1205219,EE,58.59527,25.01361
Eswatini,2047,1486494,SZ,-26.5225,31.46587
Ethiopia,2047,214023508,ET,9.145,40.48967
Euro area,2047,333662331,,,
Europe & Central Asia,2047,923546881,,,
Europe & Central Asia (excluding high income),2047,272916022,,,
Europe & Central Asia (IDA & IBRD countries),2047,466823934,,,
European Union,2047,423190987,,,
Faroe Islands,2047,61762,FO,61.89264,-6.91181
Fiji,2047,997337,FJ,-16.57819,179.41441
Finland,2047,5374178,FI,61.92411,25.74815
Fragile and conflict affected situations,2047,1676657166,,,
France,2047,69588936,FR,46.22764,2.21375
French Polynesia,2047,287108,PF,-17.67974,-149.40684
Gabon,2047,3894845,GA,-0.80369,11.60944
"Gambia, The",2047,4137203,,,
Georgia,2047,3548340,GE,42.31541,43.35689
Germany,2047,77666224,DE,51.16569,10.45153
Ghana,2047,48823459,GH,7.94653,-1.02319
Gibraltar,2047,49335,GI,36.13774,-5.34537
Greece,2047,9303046,GR,39.07421,21.82431
Greenland,2047,..,GL,71.70694,-42.6043
Grenada,2047,114404,GD,12.26278,-61.60417
Guam,2047,189239,GU,13.4443,144.79373
Guatemala,2047,24115740,GT,15.78347,-90.23076
Guinea,2047,22463112,GN,9.94559,-9.69665
Guinea-Bissau,2047,3298567,GW,11.80375,-15.18041
Guyana,2047,932486,GY,4.86042,-58.93018
Haiti,2047,14443735,HT,18.97119,-72.28522
Heavily indebted poor countries (HIPC),2047,1561363698,,,
High income,2047,1429202990,,,
Honduras,2047,14465845,HN,15.2,-86.24191
"Hong Kong SAR, China",2047,6301308,,,
Hungary,2047,8712939,HU,47.16249,19.5033
IBRD only,2047,..,,,
Iceland,2047,439709,IS,64.96305,-19.02084
IDA & IBRD total,2047,8259886719,,,
IDA blend,2047,..,,,
IDA only,2047,..,,,
IDA total,2047,..,,,
India,2047,1666628147,IN,20.59368,78.96288
Indonesia,2047,318862019,ID,-0.78928,113.92133
"Iran, Islamic Rep.",2047,101424012,,,
Iraq,2047,69098085,IQ,33.22319,43.67929
Ireland,2047,6015376,IE,53.41291,-8.24389
Isle of Man,2047,79174,IM,54.23611,-4.54806
Israel,2047,13338818,IL,31.04605,34.85161
Italy,2047,52253620,IT,41.87194,12.56738
Jamaica,2047,2528019,JM,18.10958,-77.29751
Japan,2047,107026192,JP,36.20482,138.25292
Jordan,2047,15841638,JO,30.58516,36.23841
Kazakhstan,2047,25875753,KZ,48.01957,66.92368
Kenya,2047,80938647,KE,-0.02356,37.90619
Kiribati,2047,177388,KI,-3.37042,-168.73404
"Korea, Dem. People's Rep.",2047,26052096,,,
"Korea, Rep.",2047,45801072,,,
Kosovo,2047,1493913,,,
Kuwait,2047,6212087,KW,29.31166,47.48177
Kyrgyz Republic,2047,9418563,,,
Lao PDR,2047,9605806,,,
Late-demographic dividend,2047,2226671014,,,
Latin America & Caribbean,2047,726565636,,,
Latin America & Caribbean (excluding high income),2047,654737696,,,
Latin America & the Caribbean (IDA & IBRD countries),2047,713369536,,,
Latvia,2047,1542205,LV,56.87964,24.60319
Least developed countries: UN classification,2047,1858660546,,,
Lebanon,2047,6909024,LB,33.85472,35.86229
Lesotho,2047,2927865,LS,-29.60999,28.23361
Liberia,2047,8552022,LR,6.42806,-9.4295
Libya,2047,9098408,LY,26.3351,17.22833
Liechtenstein,2047,43296,LI,47.166,9.55537
Lithuania,2047,2341203,LT,55.16944,23.88128
Low & middle income,2047,7826995842,,,
Low income,2047,1037767846,,,
Lower middle income,2047,3953081756,,,
Luxembourg,2047,782936,LU,49.81527,6.12958
"Macao SAR, China",2047,631464,,,
Madagascar,2047,50682067,MG,-18.76695,46.86911
Malawi,2047,35567993,MW,-13.25431,34.30153
Malaysia,2047,43580459,MY,4.21048,101.97577
Maldives,2047,583392,MV,3.20278,73.22068
Mali,2047,43530854,ML,17.57069,-3.99617
Malta,2047,566030,MT,35.9375,14.37542
Marshall Islands,2047,25539,MH,7.13147,171.18448
Mauritania,2047,8888481,MR,21.00789,-10.94084
Mauritius,2047,1139101,MU,-20.3484,57.55215
Mexico,2047,148030146,MX,23.6345,-102.55278
"Micronesia, Fed. Sts.",2047,125009,,,
"Middle East, North Africa, Afghanistan & Pakistan",2047,1114177878,,,
"Middle East, North Africa, Afghanistan & Pakistan (excluding high income)",2047,1018553141,,,
"Middle East, North Africa, Afghanistan & Pakistan (IDA & IBRD)",2047,1010770091,,,
Middle income,2047,6789227996,,,
Moldova,2047,1840415,,,
Monaco,2047,36572,MC,43.7503,7.41284
Mongolia,2047,4437030,MN,46.8625,103.84666
Montenegro,2047,529758,ME,42.70868,19.37439
Morocco,2047,43158169,MA,31.7917,-7.09262
Mozambique,2047,60117595,MZ,-18.6657,35.52956
Myanmar,2047,58620769,MM,21.91397,95.95622
Namibia,2047,4355498,,,
Nauru,2047,15273,NR,-0.52278,166.9315
Nepal,2047,34197259,NP,28.39486,84.12401
Netherlands,2047,18616978,NL,52.13263,5.29127
New Caledonia,2047,337638,NC,-20.90431,165.61804
New Zealand,2047,5808142,NZ,-40.90056,174.88597
Nicaragua,2047,8607278,NI,12.86542,-85.20723
Niger,2047,49423857,NE,17.60779,8.08167
Nigeria,2047,345844009,NG,9.082,8.67528
North America,2047,416532057,,,
North Macedonia,2047,1520819,MK,41.60864,21.74528
Northern Mariana Islands,2047,42733,MP,17.33083,145.38469
Norway,2047,5832444,NO,60.47202,8.46895
Not classified,2047,..,,,
OECD members,2047,1429394070,,,
Oman,2047,7550980,OM,21.51258,55.92326
Other small states,2047,14526948,,,
Pacific island small states,2047,3504107,,,
Pakistan,2047,358207155,PK,30.37532,69.34512
Palau,2047,15866,PW,7.51498,134.58252
Panama,2047,5539866,PA,8.53798,-80.78213
Papua New Guinea,2047,14469221,PG,-6.31499,143.95555
Paraguay,2047,8489460,PY,-23.4425,-58.44383
Peru,2047,40137878,PE,-9.18997,-75.01515
Philippines,2047,133385286,PH,12.87972,121.77402
Poland,2047,31787016,PL,51.91944,19.14514
Portugal,2047,10053003,PT,39.39987,-8.22445
Post-demographic dividend,2047,1123364064,,,
Pre-demographic dividend,2047,1810183648,,,
Puerto Rico (US),2047,2547493,,,
Qatar,2047,3777763,QA,25.35483,51.18388
Romania,2047,16422400,RO,45.94316,24.96676
Russian Federation,2047,137127888,RU,61.52401,105.31876
Rwanda,2047,21764589,RW,-1.94028,29.87389
Samoa,2047,265374,WS,-13.75903,-172.10463
San Marino,2047,34242,SM,43.94236,12.45778
Sao Tome and Principe,2047,350765,ST,0.18636,6.61308
Saudi Arabia,2047,47662204,SA,23.88594,45.07916
Senegal,2047,29002003,SN,14.4974,-14.45236
Serbia,2047,5527533,RS,44.01652,21.00586
Seychelles,2047,131624,SC,-4.67957,55.49198
Sierra Leone,2047,12512756,SL,8.46056,-11.77989
Singapore,2047,6269247,SG,1.35208,103.81984
Sint Maarten (Dutch part),2047,50895,,,
Slovak Republic,2047,4932308,,,
Slovenia,2047,1996503,SI,46.15124,14.99546
Small states,2047,22772463,,,
Solomon Islands,2047,1258616,SB,-9.64571,160.15619
Somalia,2047,34996382,SO,5.15215,46.19962
South Africa,2047,77716655,ZA,-30.55948,22.93751
South Asia,2047,1937067694,,,
South Asia (IDA & IBRD),2047,1937067694,,,
South Sudan,2047,17728337,,,
Spain,2047,45899388,ES,40.46367,-3.74922
Sri Lanka,2047,23377270,LK,7.87305,80.7718
St. Kitts and Nevis,2047,44925,,,
St. Lucia,2047,174727,,,
St. Martin (French part),2047,18793,,,
St. Vincent and the Grenadines,2047,90180,,,
Sub-Saharan Africa,2047,2071832067,,,
Sub-Saharan Africa (excluding high income),2047,1857676935,,,
Sub-Saharan Africa (IDA & IBRD countries),2047,2071832067,,,
Sudan,2047,81115239,SD,12.86281,30.21764
Suriname,2047,727734,SR,3.91931,-56.02778
Sweden,2047,11155225,SE,60.12816,18.6435
Switzerland,2047,9352581,CH,46.81819,8.22751
Syrian Arab Republic,2047,36878637,SY,34.80208,38.99682
Tajikistan,2047,15059869,TJ,38.86103,71.27609
Tanzania,2047,121721027,,,
Thailand,2047,67489358,TH,15.87003,100.99254
Timor-Leste,2047,1841554,TL,-8.87422,125.72754
Togo,2047,14841670,TG,8.61954,0.82478
Tonga,2047,104502,TO,-21.17899,-175.19824
Trinidad and Tobago,2047,1294909,TT,10.6918,-61.2225
Tunisia,2047,13113222,TN,33.88692,9.5375
Turkiye,2047,89179552,,,
Turkmenistan,2047,9452887,TM,38.96972,59.55628
Turks and Caicos Islands,2047,51002,TC,21.69403,-71.79793
Tuvalu,2047,9575,TV,-7.10954,177.64933
Uganda,2047,81478502,UG,1.37333,32.29028
Ukraine,2047,33017829,UA,48.37943,31.16558
United Arab Emirates,2047,14472822,AE,23.42408,53.84782
United Kingdom,2047,74696904,GB,55.37805,-3.43597
United States,2047,370316320,US,37.09024,-95.71289
Upper middle income,2047,2836146240,,,
Uruguay,2047,3285154,UY,-32.52278,-55.76584
Uzbekistan,2047,50351710,UZ,41.37749,64.58526
Vanuatu,2047,509628,VU,-15.37671,166.95916
"Venezuela, RB",2047,30974369,,,
Viet Nam,2047,109930239,VN,14.05832,108.2772
Virgin Islands (U.S.),2047,90022,,,
West Bank and Gaza,2047,7783050,,,
World,2047,9501196709,,,
"Yemen, Rep.",2047,67438814,,,
Zambia,2047,36129283,ZM,-13.1339,27.84933
Zimbabwe,2047,24816446,ZW,-19.01544,29.15486
Afghanistan,2046,71384693,AF,33.93911,67.70995
Africa Eastern and Southern,2046,1233810686,,,
Africa Western and Central,2046,803249639,,,
Albania,2046,2249497,AL,41.15333,20.16833
Algeria,2046,57767666,DZ,28.03389,1.65963
American Samoa,2046,38205,AS,-14.27097,-170.13222
Andorra,2046,83917,AD,42.54625,1.60155
Angola,2046,68000598,AO,-11.20269,17.87389
Antigua and Barbuda,2046,96191,AG,17.06082,-61.79643
Arab World,2046,685976011,,,
Argentina,2046,48237678,AR,-38.4161,-63.61667
Armenia,2046,2626837,AM,40.0691,45.03819
Aruba,2046,101100,AW,12.52111,-69.96834
Australia,2046,31947426,AU,-25.2744,133.77514
Austria,2046,8819121,AT,47.51623,14.55007
Azerbaijan,2046,11022335,AZ,40.14311,47.57693
"Bahamas, The",2046,423673,,,
Bahrain,2046,2025765,BH,25.93041,50.63777
Bangladesh,2046,210231190,BD,23.68499,90.35633
Barbados,2046,269536,BB,13.19389,-59.5432
Belarus,2046,7747725,BY,53.70981,27.95339
Belgium,2046,11941235,BE,50.50389,4.46994
Belize,2046,508114,BZ,17.18988,-88.49765
Benin,2046,22846196,BJ,9.30769,2.31583
Bermuda,2046,58825,BM,32.32138,-64.75737
Bhutan,2046,878158,BT,27.51416,90.4336
Bolivia,2046,15662315,,,
Bosnia and Herzegovina,2046,2570924,BA,43.91589,17.67908
Botswana,2046,3317003,BW,-22.32847,24.68487
Brazil,2046,218821033,BR,-14.235,-51.92528
British Virgin Islands,2046,40873,,,
Brunei Darussalam,2046,515418,BN,4.53528,114.72767
Bulgaria,2046,5321578,BG,42.73388,25.48583
Burkina Faso,2046,35339503,BF,12.23833,-1.56159
Burundi,2046,22586208,BI,-3.37306,29.91889
Cabo Verde,2046,564354,CV,16.00208,-24.0132
Cambodia,2046,21424346,KH,12.56568,104.99096
Cameroon,2046,47519038,CM,7.36972,12.35472
Canada,2046,46009408,CA,56.13037,-106.34677
Caribbean small states,2046,4743696,,,
Cayman Islands,2046,100344,KY,19.51347,-80.56696
Central African Republic,2046,9761444,CF,6.61111,20.93944
Central Europe and the Baltics,2046,88126003,,,
Chad,2046,35788067,TD,15.45417,18.73221
Channel Islands,2046,168705,,,
Chile,2046,20473282,CL,-35.67515,-71.54297
China,2046,1281722880,CN,35.86166,104.1954
Colombia,2046,59259760,CO,4.57087,-74.29733
Comoros,2046,1238455,KM,-11.875,43.87222
"Congo, Dem. Rep.",2046,199464484,,,
"Congo, Rep.",2046,10234371,,,
Costa Rica,2046,5378758,CR,9.74892,-83.75343
Cote d'Ivoire,2046,51718056,,,
Croatia,2046,3321931,HR,45.1,15.2
Cuba,2046,9699828,CU,21.52176,-77.78117
Curacao,2046,149192,,,
Cyprus,2046,1502263,CY,35.12641,33.42986
Czechia,2046,10110190,CZ,49.81749,15.47296
Denmark,2046,6095440,DK,56.26392,9.50179
Djibouti,2046,1486460,DJ,11.82514,42.59028
Dominica,2046,63575,DM,15.415,-61.37098
Dominican Republic,2046,12856880,DO,18.73569,-70.16265
Early-demographic dividend,2046,4292503684,,,
East Asia & Pacific,2046,2320052352,,,
East Asia & Pacific (excluding high income),2046,2093437972,,,
East Asia & Pacific (IDA & IBRD countries),2046,2067336125,,,
Ecuador,2046,21038531,EC,-1.83124,-78.18341
"Egypt, Arab Rep.",2046,155535948,,,
El Salvador,2046,6669409,SV,13.79419,-88.89653
Equatorial Guinea,2046,2959097,GQ,1.6508,10.2679
Eritrea,2046,5375967,ER,15.17938,39.78233
Estonia,2046,1211436,EE,58.59527,25.01361
Eswatini,2046,1479611,SZ,-26.5225,31.46587
Ethiopia,2046,210337848,ET,9.145,40.48967
Euro area,2046,334746948,,,
Europe & Central Asia,2046,924353650,,,
Europe & Central Asia (excluding high income),2046,272274436,,,
Europe & Central Asia (IDA & IBRD countries),2046,466684610,,,
European Union,2046,424690739,,,
Faroe Islands,2046,61562,FO,61.89264,-6.91181
Fiji,2046,995975,FJ,-16.57819,179.41441
Finland,2046,5386220,FI,61.92411,25.74815
Fragile and conflict affected situations,2046,1650951108,,,
France,2046,69571744,FR,46.22764,2.21375
French Polynesia,2046,287668,PF,-17.67974,-149.40684
Gabon,2046,3831210,GA,-0.80369,11.60944
"Gambia, The",2046,4080970,,,
Georgia,2046,3556013,GE,42.31541,43.35689
Germany,2046,77939488,DE,51.16569,10.45153
Ghana,2046,48231610,GH,7.94653,-1.02319
Gibraltar,2046,49154,GI,36.13774,-5.34537
Greece,2046,9356748,GR,39.07421,21.82431
Greenland,2046,..,GL,71.70694,-42.6043
Grenada,2046,114772,GD,12.26278,-61.60417
Guam,2046,188478,GU,13.4443,144.79373
Guatemala,2046,23920455,GT,15.78347,-90.23076
Guinea,2046,22141685,GN,9.94559,-9.69665
Guinea-Bissau,2046,3251468,GW,11.80375,-15.18041
Guyana,2046,929480,GY,4.86042,-58.93018
Haiti,2046,14349606,HT,18.97119,-72.28522
Heavily indebted poor countries (HIPC),2046,1533161213,,,
High income,2046,1429672998,,,
Honduras,2046,14333282,HN,15.2,-86.24191
"Hong Kong SAR, China",2046,6402965,,,
Hungary,2046,8743482,HU,47.16249,19.5033
IBRD only,2046,..,,,
Iceland,2046,439623,IS,64.96305,-19.02084
IDA & IBRD total,2046,8213580870,,,
IDA blend,2046,..,,,
IDA only,2046,..,,,
IDA total,2046,..,,,
India,2046,1661548391,IN,20.59368,78.96288
Indonesia,2046,318096573,ID,-0.78928,113.92133
"Iran, Islamic Rep.",2046,101219689,,,
Iraq,2046,68150061,IQ,33.22319,43.67929
Ireland,2046,6004366,IE,53.41291,-8.24389
Isle of Man,2046,79531,IM,54.23611,-4.54806
Israel,2046,13184297,IL,31.04605,34.85161
Italy,2046,52631280,IT,41.87194,12.56738
Jamaica,2046,2551353,JM,18.10958,-77.29751
Japan,2046,107675448,JP,36.20482,138.25292
Jordan,2046,15662323,JO,30.58516,36.23841
Kazakhstan,2046,25642876,KZ,48.01957,66.92368
Kenya,2046,80022375,KE,-0.02356,37.90619
Kiribati,2046,175618,KI,-3.37042,-168.73404
"Korea, Dem. People's Rep.",2046,26132926,,,
"Korea, Rep.",2046,46235796,,,
Kosovo,2046,1497754,,,
Kuwait,2046,6158962,KW,29.31166,47.48177
Kyrgyz Republic,2046,9333347,,,
Lao PDR,2046,9550340,,,
Late-demographic dividend,2046,2235695403,,,
Latin America & Caribbean,2046,725520422,,,
Latin America & Caribbean (excluding high income),2046,653693046,,,
Latin America & the Caribbean (IDA & IBRD countries),2046,712212214,,,
Latvia,2046,1554822,LV,56.87964,24.60319
Least developed countries: UN classification,2046,1828876697,,,
Lebanon,2046,6871779,LB,33.85472,35.86229
Lesotho,2046,2904784,LS,-29.60999,28.23361
Liberia,2046,8428910,LR,6.42806,-9.4295
Libya,2046,9043673,LY,26.3351,17.22833
Liechtenstein,2046,43260,LI,47.166,9.55537
Lithuania,2046,2364721,LT,55.16944,23.88128
Low & middle income,2046,7783960755,,,
Low income,2046,1019354425,,,
Lower middle income,2046,3922937078,,,
Luxembourg,2046,780791,LU,49.81527,6.12958
"Macao SAR, China",2046,636059,,,
Madagascar,2046,49846527,MG,-18.76695,46.86911
Malawi,2046,34959611,MW,-13.25431,34.30153
Malaysia,2046,43313749,MY,4.21048,101.97577
Maldives,2046,581021,MV,3.20278,73.22068
Mali,2046,42655645,ML,17.57069,-3.99617
Malta,2046,568015,MT,35.9375,14.37542
Marshall Islands,2046,25651,MH,7.13147,171.18448
Mauritania,2046,8713260,MR,21.00789,-10.94084
Mauritius,2046,1147673,MU,-20.3484,57.55215
Mexico,2046,147654160,MX,23.6345,-102.55278
"Micronesia, Fed. Sts.",2046,124540,,,
"Middle East, North Africa, Afghanistan & Pakistan",2046,1101918546,,,
"Middle East, North Africa, Afghanistan & Pakistan (excluding high income)",2046,1007330907,,,
"Middle East, North Africa, Afghanistan & Pakistan (IDA & IBRD)",2046,999653931,,,
Middle income,2046,6764606330,,,
Moldova,2046,1858503,,,
Monaco,2046,36538,MC,43.7503,7.41284
Mongolia,2046,4397784,MN,46.8625,103.84666
Montenegro,2046,533910,ME,42.70868,19.37439
Morocco,2046,43046179,MA,31.7917,-7.09262
Mozambique,2046,58981108,MZ,-18.6657,35.52956
Myanmar,2046,58596768,MM,21.91397,95.95622
Namibia,2046,4299961,,,
Nauru,2046,15100,NR,-0.52278,166.9315
Nepal,2046,34032995,NP,28.39486,84.12401
Netherlands,2046,18635414,NL,52.13263,5.29127
New Caledonia,2046,336483,NC,-20.90431,165.61804
New Zealand,2046,5797676,NZ,-40.90056,174.88597
Nicaragua,2046,8553411,NI,12.86542,-85.20723
Niger,2046,48398001,NE,17.60779,8.08167
Nigeria,2046,341281763,NG,9.082,8.67528
North America,2046,415356105,,,
North Macedonia,2046,1533201,MK,41.60864,21.74528
Northern Mariana Islands,2046,42700,MP,17.33083,145.38469
Norway,2046,5829714,NO,60.47202,8.46895
Not classified,2046,..,,,
OECD members,2046,1429705746,,,
Oman,2046,7460275,OM,21.51258,55.92326
Other small states,2046,14483860,,,
Pacific island small states,2046,3472278,,,
Pakistan,2046,353552856,PK,30.37532,69.34512
Palau,2046,15979,PW,7.51498,134.58252
Panama,2046,5507141,PA,8.53798,-80.78213
Papua New Guinea,2046,14318892,PG,-6.31499,143.95555
Paraguay,2046,8435754,PY,-23.4425,-58.44383
Peru,2046,39971719,PE,-9.18997,-75.01515
Philippines,2046,132962000,PH,12.87972,121.77402
Poland,2046,31999332,PL,51.91944,19.14514
Portugal,2046,10087715,PT,39.39987,-8.22445
Post-demographic dividend,2046,1124670425,,,
Pre-demographic dividend,2046,1778707753,,,
Puerto Rico (US),2046,2582132,,,
Qatar,2046,3732431,QA,25.35483,51.18388
Romania,2046,16538709,RO,45.94316,24.96676
Russian Federation,2046,137228624,RU,61.52401,105.31876
Rwanda,2046,21459156,RW,-1.94028,29.87389
Samoa,2046,262858,WS,-13.75903,-172.10463
San Marino,2046,34283,SM,43.94236,12.45778
Sao Tome and Principe,2046,345887,ST,0.18636,6.61308
Saudi Arabia,2046,47150184,SA,23.88594,45.07916
Senegal,2046,28546284,SN,14.4974,-14.45236
Serbia,2046,5569346,RS,44.01652,21.00586
Seychelles,2046,131748,SC,-4.67957,55.49198
Sierra Leone,2046,12363458,SL,8.46056,-11.77989
Singapore,2046,6287413,SG,1.35208,103.81984
Sint Maarten (Dutch part),2046,50767,,,
Slovak Republic,2046,4956447,,,
Slovenia,2046,2003355,SI,46.15124,14.99546
Small states,2046,22699834,,,
Solomon Islands,2046,1241495,SB,-9.64571,160.15619
Somalia,2046,34248032,SO,5.15215,46.19962
South Africa,2046,77199548,ZA,-30.55948,22.93751
South Asia,2046,1930633665,,,
South Asia (IDA & IBRD),2046,1930633665,,,
South Sudan,2046,17509696,,,
Spain,2046,46109836,ES,40.46367,-3.74922
Sri Lanka,2046,23361910,LK,7.87305,80.7718
St. Kitts and Nevis,2046,45151,,,
St. Lucia,2046,175512,,,
St. Martin (French part),2046,18805,,,
St. Vincent and the Grenadines,2046,90577,,,
Sub-Saharan Africa,2046,2037060325,,,
Sub-Saharan Africa (excluding high income),2046,1826590729,,,
Sub-Saharan Africa (IDA & IBRD countries),2046,2037060325,,,
Sudan,2046,79767268,SD,12.86281,30.21764
Suriname,2046,725322,SR,3.91931,-56.02778
Sweden,2046,11135060,SE,60.12816,18.6435
Switzerland,2046,9351083,CH,46.81819,8.22751
Syrian Arab Republic,2046,36583262,SY,34.80208,38.99682
Tajikistan,2046,14879388,TJ,38.86103,71.27609
Tanzania,2046,119109675,,,
Thailand,2046,67827311,TH,15.87003,100.99254
Timor-Leste,2046,1825545,TL,-8.87422,125.72754
Togo,2046,14595249,TG,8.61954,0.82478
Tonga,2046,104234,TO,-21.17899,-175.19824
Trinidad and Tobago,2046,1301793,TT,10.6918,-61.2225
Tunisia,2046,13095745,TN,33.88692,9.5375
Turkiye,2046,89192704,,,
Turkmenistan,2046,9384182,TM,38.96972,59.55628
Turks and Caicos Islands,2046,50974,TC,21.69403,-71.79793
Tuvalu,2046,9502,TV,-7.10954,177.64933
Uganda,2046,80139175,UG,1.37333,32.29028
Ukraine,2046,33351501,UA,48.37943,31.16558
United Arab Emirates,2046,14307710,AE,23.42408,53.84782
United Kingdom,2046,74550496,GB,55.37805,-3.43597
United States,2046,369287872,US,37.09024,-95.71289
Upper middle income,2046,2841669252,,,
Uruguay,2046,3294200,UY,-32.52278,-55.76584
Uzbekistan,2046,49724393,UZ,41.37749,64.58526
Vanuatu,2046,501326,VU,-15.37671,166.95916
"Venezuela, RB",2046,30923464,,,
Viet Nam,2046,109827659,VN,14.05832,108.2772
Virgin Islands (U.S.),2046,90520,,,
West Bank and Gaza,2046,7676976,,,
World,2046,9454895065,,,
"Yemen, Rep.",2046,66253597,,,
Zambia,2046,35475810,ZM,-13.1339,27.84933
Zimbabwe,2046,24462478,ZW,-19.01544,29.15486
Afghanistan,2045,70021200,AF,33.93911,67.70995
Africa Eastern and Southern,2045,1211821643,,,
Africa Western and Central,2045,790470642,,,
Albania,2045,2271850,AL,41.15333,20.16833
Algeria,2045,57290156,DZ,28.03389,1.65963
American Samoa,2045,38371,AS,-14.27097,-170.13222
Andorra,2045,84294,AD,42.54625,1.60155
Angola,2045,66464329,AO,-11.20269,17.87389
Antigua and Barbuda,2045,96419,AG,17.06082,-61.79643
Arab World,2045,677717987,,,
Argentina,2045,48191841,AR,-38.4161,-63.61667
Armenia,2045,2643587,AM,40.0691,45.03819
Aruba,2045,101631,AW,12.52111,-69.96834
Australia,2045,31728016,AU,-25.2744,133.77514
Austria,2045,8846259,AT,47.51623,14.55007
Azerbaijan,2045,11011587,AZ,40.14311,47.57693
"Bahamas, The",2045,423262,,,
Bahrain,2045,2007428,BH,25.93041,50.63777
Bangladesh,2045,209029594,BD,23.68499,90.35633
Barbados,2045,270774,BB,13.19389,-59.5432
Belarus,2045,7808340,BY,53.70981,27.95339
Belgium,2045,11947189,BE,50.50389,4.46994
Belize,2045,505700,BZ,17.18988,-88.49765
Benin,2045,22443646,BJ,9.30769,2.31583
Bermuda,2045,59259,BM,32.32138,-64.75737
Bhutan,2045,876173,BT,27.51416,90.4336
Bolivia,2045,15542791,,,
Bosnia and Herzegovina,2045,2599927,BA,43.91589,17.67908
Botswana,2045,3285301,BW,-22.32847,24.68487
Brazil,2045,219026196,BR,-14.235,-51.92528
British Virgin Islands,2045,40971,,,
Brunei Darussalam,2045,514052,BN,4.53528,114.72767
Bulgaria,2045,5368839,BG,42.73388,25.48583
Burkina Faso,2045,34829690,BF,12.23833,-1.56159
Burundi,2045,22197887,BI,-3.37306,29.91889
Cabo Verde,2045,563476,CV,16.00208,-24.0132
Cambodia,2045,21286237,KH,12.56568,104.99096
Cameroon,2045,46629039,CM,7.36972,12.35472
Canada,2045,45862396,CA,56.13037,-106.34677
Caribbean small states,2045,4745030,,,
Cayman Islands,2045,99382,KY,19.51347,-80.56696
Central African Republic,2045,9550893,CF,6.61111,20.93944
Central Europe and the Baltics,2045,88652458,,,
Chad,2045,35026393,TD,15.45417,18.73221
Channel Islands,2045,168897,,,
Chile,2045,20499138,CL,-35.67515,-71.54297
China,2045,1290258048,CN,35.86166,104.1954
Colombia,2045,59190823,CO,4.57087,-74.29733
Comoros,2045,1221072,KM,-11.875,43.87222
"Congo, Dem. Rep.",2045,194865379,,,
"Congo, Rep.",2045,10041901,,,
Costa Rica,2045,5381019,CR,9.74892,-83.75343
Cote d'Ivoire,2045,50716067,,,
Croatia,2045,3347033,HR,45.1,15.2
Cuba,2045,9775199,CU,21.52176,-77.78117
Curacao,2045,149687,,,
Cyprus,2045,1500070,CY,35.12641,33.42986
Czechia,2045,10135964,CZ,49.81749,15.47296
Denmark,2045,6097737,DK,56.26392,9.50179
Djibouti,2045,1474041,DJ,11.82514,42.59028
Dominica,2045,63629,DM,15.415,-61.37098
Dominican Republic,2045,12816005,DO,18.73569,-70.16265
Early-demographic dividend,2045,4266252493,,,
East Asia & Pacific,2045,2327894792,,,
East Asia & Pacific (excluding high income),2045,2100162287,,,
East Asia & Pacific (IDA & IBRD countries),2045,2073983101,,,
Ecuador,2045,20950628,EC,-1.83124,-78.18341
"Egypt, Arab Rep.",2045,153919189,,,
El Salvador,2045,6668025,SV,13.79419,-88.89653
Equatorial Guinea,2045,2911235,GQ,1.6508,10.2679
Eritrea,2045,5292768,ER,15.17938,39.78233
Estonia,2045,1217716,EE,58.59527,25.01361
Eswatini,2045,1472137,SZ,-26.5225,31.46587
Ethiopia,2045,206673639,ET,9.145,40.48967
Euro area,2045,335780689,,,
Europe & Central Asia,2045,925047390,,,
Europe & Central Asia (excluding high income),2045,271589388,,,
Europe & Central Asia (IDA & IBRD countries),2045,466492047,,,
European Union,2045,426133577,,,
Faroe Islands,2045,61370,FO,61.89264,-6.91181
Fiji,2045,994457,FJ,-16.57819,179.41441
Finland,2045,5397786,FI,61.92411,25.74815
Fragile and conflict affected situations,2045,1625197628,,,
France,2045,69550360,FR,46.22764,2.21375
French Polynesia,2045,288132,PF,-17.67974,-149.40684
Gabon,2045,3767429,GA,-0.80369,11.60944
"Gambia, The",2045,4024237,,,
Georgia,2045,3564071,GE,42.31541,43.35689
Germany,2045,78209128,DE,51.16569,10.45153
Ghana,2045,47634274,GH,7.94653,-1.02319
Gibraltar,2045,48974,GI,36.13774,-5.34537
Greece,2045,9406598,GR,39.07421,21.82431
Greenland,2045,..,GL,71.70694,-42.6043
Grenada,2045,115123,GD,12.26278,-61.60417
Guam,2045,187681,GU,13.4443,144.79373
Guatemala,2045,23719089,GT,15.78347,-90.23076
Guinea,2045,21817245,GN,9.94559,-9.69665
Guinea-Bissau,2045,3204249,GW,11.80375,-15.18041
Guyana,2045,926353,GY,4.86042,-58.93018
Haiti,2045,14252967,HT,18.97119,-72.28522
Heavily indebted poor countries (HIPC),2045,1505033162,,,
High income,2045,1430009111,,,
Honduras,2045,14197946,HN,15.2,-86.24191
"Hong Kong SAR, China",2045,6480659,,,
Hungary,2045,8774230,HU,47.16249,19.5033
IBRD only,2045,..,,,
Iceland,2045,439444,IS,64.96305,-19.02084
IDA & IBRD total,2045,8165775630,,,
IDA blend,2045,..,,,
IDA only,2045,..,,,
IDA total,2045,..,,,
India,2045,1656067583,IN,20.59368,78.96288
Indonesia,2045,317249613,ID,-0.78928,113.92133
"Iran, Islamic Rep.",2045,100990613,,,
Iraq,2045,67204177,IQ,33.22319,43.67929
Ireland,2045,5992783,IE,53.41291,-8.24389
Isle of Man,2045,79875,IM,54.23611,-4.54806
Israel,2045,13026514,IL,31.04605,34.85161
Italy,2045,52990336,IT,41.87194,12.56738
Jamaica,2045,2574081,JM,18.10958,-77.29751
Japan,2045,108321080,JP,36.20482,138.25292
Jordan,2045,15471984,JO,30.58516,36.23841
Kazakhstan,2045,25409756,KZ,48.01957,66.92368
Kenya,2045,79088836,KE,-0.02356,37.90619
Kiribati,2045,173813,KI,-3.37042,-168.73404
"Korea, Dem. People's Rep.",2045,26210203,,,
"Korea, Rep.",2045,46653584,,,
Kosovo,2045,1501566,,,
Kuwait,2045,6105770,KW,29.31166,47.48177
Kyrgyz Republic,2045,9247688,,,
Lao PDR,2045,9492503,,,
Late-demographic dividend,2045,2244107156,,,
Latin America & Caribbean,2045,724313623,,,
Latin America & Caribbean (excluding high income),2045,652494951,,,
Latin America & the Caribbean (IDA & IBRD countries),2045,710894716,,,
Latvia,2045,1567492,LV,56.87964,24.60319
Least developed countries: UN classification,2045,1799123374,,,
Lebanon,2045,6834988,LB,33.85472,35.86229
Lesotho,2045,2881339,LS,-29.60999,28.23361
Liberia,2045,8310645,LR,6.42806,-9.4295
Libya,2045,8983949,LY,26.3351,17.22833
Liechtenstein,2045,43213,LI,47.166,9.55537
Lithuania,2045,2387705,LT,55.16944,23.88128
Low & middle income,2045,7739416053,,,
Low income,2045,1000951127,,,
Lower middle income,2045,3892050842,,,
Luxembourg,2045,778455,LU,49.81527,6.12958
"Macao SAR, China",2045,640227,,,
Madagascar,2045,49011274,MG,-18.76695,46.86911
Malawi,2045,34350954,MW,-13.25431,34.30153
Malaysia,2045,43038204,MY,4.21048,101.97577
Maldives,2045,578453,MV,3.20278,73.22068
Mali,2045,41778982,ML,17.57069,-3.99617
Malta,2045,569744,MT,35.9375,14.37542
Marshall Islands,2045,25773,MH,7.13147,171.18448
Mauritania,2045,8538531,MR,21.00789,-10.94084
Mauritius,2045,1155983,MU,-20.3484,57.55215
Mexico,2045,147240092,MX,23.6345,-102.55278
"Micronesia, Fed. Sts.",2045,124064,,,
"Middle East, North Africa, Afghanistan & Pakistan",2045,1089478812,,,
"Middle East, North Africa, Afghanistan & Pakistan (excluding high income)",2045,995930198,,,
"Middle East, North Africa, Afghanistan & Pakistan (IDA & IBRD)",2045,988361060,,,
Middle income,2045,6738464926,,,
Moldova,2045,1877181,,,
Monaco,2045,36523,MC,43.7503,7.41284
Mongolia,2045,4357578,MN,46.8625,103.84666
Montenegro,2045,537975,ME,42.70868,19.37439
Morocco,2045,42925306,MA,31.7917,-7.09262
Mozambique,2045,57851793,MZ,-18.6657,35.52956
Myanmar,2045,58558172,MM,21.91397,95.95622
Namibia,2045,4243350,,,
Nauru,2045,14928,NR,-0.52278,166.9315
Nepal,2045,33861060,NP,28.39486,84.12401
Netherlands,2045,18648088,NL,52.13263,5.29127
New Caledonia,2045,335163,NC,-20.90431,165.61804
New Zealand,2045,5786479,NZ,-40.90056,174.88597
Nicaragua,2045,8497615,NI,12.86542,-85.20723
Niger,2045,47374117,NE,17.60779,8.08167
Nigeria,2045,336662502,NG,9.082,8.67528
North America,2045,414190967,,,
North Macedonia,2045,1545981,MK,41.60864,21.74528
Northern Mariana Islands,2045,42643,MP,17.33083,145.38469
Norway,2045,5826194,NO,60.47202,8.46895
Not classified,2045,..,,,
OECD members,2045,1429842034,,,
Oman,2045,7370225,OM,21.51258,55.92326
Other small states,2045,14437053,,,
Pacific island small states,2045,3439943,,,
Pakistan,2045,348837726,PK,30.37532,69.34512
Palau,2045,16089,PW,7.51498,134.58252
Panama,2045,5473276,PA,8.53798,-80.78213
Papua New Guinea,2045,14165588,PG,-6.31499,143.95555
Paraguay,2045,8380530,PY,-23.4425,-58.44383
Peru,2045,39796724,PE,-9.18997,-75.01515
Philippines,2045,132492032,PH,12.87972,121.77402
Poland,2045,32211806,PL,51.91944,19.14514
Portugal,2045,10122331,PT,39.39987,-8.22445
Post-demographic dividend,2045,1125860480,,,
Pre-demographic dividend,2045,1747241115,,,
Puerto Rico (US),2045,2617394,,,
Qatar,2045,3687707,QA,25.35483,51.18388
Romania,2045,16651013,RO,45.94316,24.96676
Russian Federation,2045,137323968,RU,61.52401,105.31876
Rwanda,2045,21152658,RW,-1.94028,29.87389
Samoa,2045,260262,WS,-13.75903,-172.10463
San Marino,2045,34320,SM,43.94236,12.45778
Sao Tome and Principe,2045,340926,ST,0.18636,6.61308
Saudi Arabia,2045,46636104,SA,23.88594,45.07916
Senegal,2045,28089699,SN,14.4974,-14.45236
Serbia,2045,5611719,RS,44.01652,21.00586
Seychelles,2045,131838,SC,-4.67957,55.49198
Sierra Leone,2045,12208880,SL,8.46056,-11.77989
Singapore,2045,6302217,SG,1.35208,103.81984
Sint Maarten (Dutch part),2045,50622,,,
Slovak Republic,2045,4980582,,,
Slovenia,2045,2010078,SI,46.15124,14.99546
Small states,2045,22622026,,,
Solomon Islands,2045,1224199,SB,-9.64571,160.15619
Somalia,2045,33510166,SO,5.15215,46.19962
South Africa,2045,76681450,ZA,-30.55948,22.93751
South Asia,2045,1923752421,,,
South Asia (IDA & IBRD),2045,1923752421,,,
South Sudan,2045,17286410,,,
Spain,2045,46310956,ES,40.46367,-3.74922
Sri Lanka,2045,23339558,LK,7.87305,80.7718
St. Kitts and Nevis,2045,45367,,,
St. Lucia,2045,176236,,,
St. Martin (French part),2045,18819,,,
St. Vincent and the Grenadines,2045,90955,,,
Sub-Saharan Africa,2045,2002292285,,,
Sub-Saharan Africa (excluding high income),2045,1795486808,,,
Sub-Saharan Africa (IDA & IBRD countries),2045,2002292285,,,
Sudan,2045,78415203,SD,12.86281,30.21764
Suriname,2045,722756,SR,3.91931,-56.02778
Sweden,2045,11113299,SE,60.12816,18.6435
Switzerland,2045,9350401,CH,46.81819,8.22751
Syrian Arab Republic,2045,36265286,SY,34.80208,38.99682
Tajikistan,2045,14694862,TJ,38.86103,71.27609
Tanzania,2045,116525473,,,
Thailand,2045,68150152,TH,15.87003,100.99254
Timor-Leste,2045,1809633,TL,-8.87422,125.72754
Togo,2045,14347512,TG,8.61954,0.82478
Tonga,2045,103930,TO,-21.17899,-175.19824
Trinidad and Tobago,2045,1308456,TT,10.6918,-61.2225
Tunisia,2045,13076089,TN,33.88692,9.5375
Turkiye,2045,89173968,,,
Turkmenistan,2045,9312822,TM,38.96972,59.55628
Turks and Caicos Islands,2045,50926,TC,21.69403,-71.79793
Tuvalu,2045,9438,TV,-7.10954,177.64933
Uganda,2045,78797992,UG,1.37333,32.29028
Ukraine,2045,33680445,UA,48.37943,31.16558
United Arab Emirates,2045,14145122,AE,23.42408,53.84782
United Kingdom,2045,74396696,GB,55.37805,-3.43597
United States,2045,368269312,US,37.09024,-95.71289
Upper middle income,2045,2846414084,,,
Uruguay,2045,3302675,UY,-32.52278,-55.76584
Uzbekistan,2045,49096063,UZ,41.37749,64.58526
Vanuatu,2045,492990,VU,-15.37671,166.95916
"Venezuela, RB",2045,30871487,,,
Viet Nam,2045,109685398,VN,14.05832,108.2772
Virgin Islands (U.S.),2045,91014,,,
West Bank and Gaza,2045,7569138,,,
World,2045,9406970290,,,
"Yemen, Rep.",2045,65066356,,,
Zambia,2045,34821106,ZM,-13.1339,27.84933
Zimbabwe,2045,24102380,ZW,-19.01544,29.15486
Afghanistan,2044,68703958,AF,33.93911,67.70995
Africa Eastern and Southern,2044,1189858314,,,
Africa Western and Central,2044,777624630,,,
Albania,2044,2294271,AL,41.15333,20.16833
Algeria,2044,56806179,DZ,28.03389,1.65963
American Samoa,2044,38548,AS,-14.27097,-170.13222
Andorra,2044,84678,AD,42.54625,1.60155
Angola,2044,64945298,AO,-11.20269,17.87389
Antigua and Barbuda,2044,96621,AG,17.06082,-61.79643
Arab World,2044,669363239,,,
Argentina,2044,48135529,AR,-38.4161,-63.61667
Armenia,2044,2660537,AM,40.0691,45.03819
Aruba,2044,102130,AW,12.52111,-69.96834
Australia,2044,31515388,AU,-25.2744,133.77514
Austria,2044,8871656,AT,47.51623,14.55007
Azerbaijan,2044,10997517,AZ,40.14311,47.57693
"Bahamas, The",2044,422822,,,
Bahrain,2044,1989050,BH,25.93041,50.63777
Bangladesh,2044,207801055,BD,23.68499,90.35633
Barbados,2044,271961,BB,13.19389,-59.5432
Belarus,2044,7869775,BY,53.70981,27.95339
Belgium,2044,11952283,BE,50.50389,4.46994
Belize,2044,503178,BZ,17.18988,-88.49765
Benin,2044,22042571,BJ,9.30769,2.31583
Bermuda,2044,59678,BM,32.32138,-64.75737
Bhutan,2044,873739,BT,27.51416,90.4336
Bolivia,2044,15420210,,,
Bosnia and Herzegovina,2044,2628412,BA,43.91589,17.67908
Botswana,2044,3254015,BW,-22.32847,24.68487
Brazil,2044,219178995,BR,-14.235,-51.92528
British Virgin Islands,2044,41057,,,
Brunei Darussalam,2044,512595,BN,4.53528,114.72767
Bulgaria,2044,5416413,BG,42.73388,25.48583
Burkina Faso,2044,34311736,BF,12.23833,-1.56159
Burundi,2044,21785692,BI,-3.37306,29.91889
Cabo Verde,2044,562463,CV,16.00208,-24.0132
Cambodia,2044,21144579,KH,12.56568,104.99096
Cameroon,2044,45741474,CM,7.36972,12.35472
Canada,2044,45701552,CA,56.13037,-106.34677
Caribbean small states,2044,4745546,,,
Cayman Islands,2044,98393,KY,19.51347,-80.56696
Central African Republic,2044,9341762,CF,6.61111,20.93944
Central Europe and the Baltics,2044,89180337,,,
Chad,2044,34272321,TD,15.45417,18.73221
Channel Islands,2044,169074,,,
Chile,2044,20519684,CL,-35.67515,-71.54297
China,2044,1298343168,CN,35.86166,104.1954
Colombia,2044,59104590,CO,4.57087,-74.29733
Comoros,2044,1203544,KM,-11.875,43.87222
"Congo, Dem. Rep.",2044,190312002,,,
"Congo, Rep.",2044,9850507,,,
Costa Rica,2044,5381722,CR,9.74892,-83.75343
Cote d'Ivoire,2044,49709046,,,
Croatia,2044,3372449,HR,45.1,15.2
Cuba,2044,9848745,CU,21.52176,-77.78117
Curacao,2044,150206,,,
Cyprus,2044,1497658,CY,35.12641,33.42986
Czechia,2044,10161034,CZ,49.81749,15.47296
Denmark,2044,6098373,DK,56.26392,9.50179
Djibouti,2044,1461638,DJ,11.82514,42.59028
Dominica,2044,63678,DM,15.415,-61.37098
Dominican Republic,2044,12772653,DO,18.73569,-70.16265
Early-demographic dividend,2044,4239190434,,,
East Asia & Pacific,2044,2335066702,,,
East Asia & Pacific (excluding high income),2044,2106221412,,,
East Asia & Pacific (IDA & IBRD countries),2044,2079968349,,,
Ecuador,2044,20857470,EC,-1.83124,-78.18341
"Egypt, Arab Rep.",2044,152255334,,,
El Salvador,2044,6665751,SV,13.79419,-88.89653
Equatorial Guinea,2044,2862519,GQ,1.6508,10.2679
Eritrea,2044,5207870,ER,15.17938,39.78233
Estonia,2044,1224016,EE,58.59527,25.01361
Eswatini,2044,1464370,SZ,-26.5225,31.46587
Ethiopia,2044,203014371,ET,9.145,40.48967
Euro area,2044,336786453,,,
Europe & Central Asia,2044,925711404,,,
Europe & Central Asia (excluding high income),2044,270888367,,,
Europe & Central Asia (IDA & IBRD countries),2044,466313924,,,
European Union,2044,427545604,,,
Faroe Islands,2044,61167,FO,61.89264,-6.91181
Fiji,2044,992749,FJ,-16.57819,179.41441
Finland,2044,5409346,FI,61.92411,25.74815
Fragile and conflict affected situations,2044,1599399108,,,
France,2044,69519608,FR,46.22764,2.21375
French Polynesia,2044,288488,PF,-17.67974,-149.40684
Gabon,2044,3703794,GA,-0.80369,11.60944
"Gambia, The",2044,3966913,,,
Georgia,2044,3571705,GE,42.31541,43.35689
Germany,2044,78482400,DE,51.16569,10.45153
Ghana,2044,47030358,GH,7.94653,-1.02319
Gibraltar,2044,48772,GI,36.13774,-5.34537
Greece,2044,9455557,GR,39.07421,21.82431
Greenland,2044,..,GL,71.70694,-42.6043
Grenada,2044,115439,GD,12.26278,-61.60417
Guam,2044,186851,GU,13.4443,144.79373
Guatemala,2044,23512018,GT,15.78347,-90.23076
Guinea,2044,21492051,GN,9.94559,-9.69665
Guinea-Bissau,2044,3156711,GW,11.80375,-15.18041
Guyana,2044,923121,GY,4.86042,-58.93018
Haiti,2044,14153899,HT,18.97119,-72.28522
Heavily indebted poor countries (HIPC),2044,1476968237,,,
High income,2044,1430270219,,,
Honduras,2044,14060021,HN,15.2,-86.24191
"Hong Kong SAR, China",2044,6556007,,,
Hungary,2044,8805528,HU,47.16249,19.5033
IBRD only,2044,..,,,
Iceland,2044,439255,IS,64.96305,-19.02084
IDA & IBRD total,2044,8116559588,,,
IDA blend,2044,..,,,
IDA only,2044,..,,,
IDA total,2044,..,,,
India,2044,1650186612,IN,20.59368,78.96288
Indonesia,2044,316318416,ID,-0.78928,113.92133
"Iran, Islamic Rep.",2044,100737592,,,
Iraq,2044,66237769,IQ,33.22319,43.67929
Ireland,2044,5978358,IE,53.41291,-8.24389
Isle of Man,2044,80230,IM,54.23611,-4.54806
Israel,2044,12871003,IL,31.04605,34.85161
Italy,2044,53340640,IT,41.87194,12.56738
Jamaica,2044,2596168,JM,18.10958,-77.29751
Japan,2044,108967752,JP,36.20482,138.25292
Jordan,2044,15273540,JO,30.58516,36.23841
Kazakhstan,2044,25175230,KZ,48.01957,66.92368
Kenya,2044,78134980,KE,-0.02356,37.90619
Kiribati,2044,172009,KI,-3.37042,-168.73404
"Korea, Dem. People's Rep.",2044,26284018,,,
"Korea, Rep.",2044,47064712,,,
Kosovo,2044,1504937,,,
Kuwait,2044,6052473,KW,29.31166,47.48177
Kyrgyz Republic,2044,9159029,,,
Lao PDR,2044,9432308,,,
Late-demographic dividend,2044,2251919116,,,
Latin America & Caribbean,2044,722935375,,,
Latin America & Caribbean (excluding high income),2044,651141127,,,
Latin America & the Caribbean (IDA & IBRD countries),2044,709408729,,,
Latvia,2044,1580614,LV,56.87964,24.60319
Least developed countries: UN classification,2044,1769412214,,,
Lebanon,2044,6794018,LB,33.85472,35.86229
Lesotho,2044,2857505,LS,-29.60999,28.23361
Liberia,2044,8194126,LR,6.42806,-9.4295
Libya,2044,8920028,LY,26.3351,17.22833
Liechtenstein,2044,43165,LI,47.166,9.55537
Lithuania,2044,2410862,LT,55.16944,23.88128
Low & middle income,2044,7693430325,,,
Low income,2044,982589803,,,
Lower middle income,2044,3860453202,,,
Luxembourg,2044,775809,LU,49.81527,6.12958
"Macao SAR, China",2044,643019,,,
Madagascar,2044,48176604,MG,-18.76695,46.86911
Malawi,2044,33736528,MW,-13.25431,34.30153
Malaysia,2044,42754137,MY,4.21048,101.97577
Maldives,2044,575809,MV,3.20278,73.22068
Mali,2044,40902503,ML,17.57069,-3.99617
Malta,2044,571472,MT,35.9375,14.37542
Marshall Islands,2044,25907,MH,7.13147,171.18448
Mauritania,2044,8365182,MR,21.00789,-10.94084
Mauritius,2044,1164062,MU,-20.3484,57.55215
Mexico,2044,146787717,MX,23.6345,-102.55278
"Micronesia, Fed. Sts.",2044,123590,,,
"Middle East, North Africa, Afghanistan & Pakistan",2044,1076927115,,,
"Middle East, North Africa, Afghanistan & Pakistan (excluding high income)",2044,984413800,,,
"Middle East, North Africa, Afghanistan & Pakistan (IDA & IBRD)",2044,976956693,,,
Middle income,2044,6710840522,,,
Moldova,2044,1896829,,,
Monaco,2044,36517,MC,43.7503,7.41284
Mongolia,2044,4315994,MN,46.8625,103.84666
Montenegro,2044,542052,ME,42.70868,19.37439
Morocco,2044,42792498,MA,31.7917,-7.09262
Mozambique,2044,56716584,MZ,-18.6657,35.52956
Myanmar,2044,58506404,MM,21.91397,95.95622
Namibia,2044,4186104,,,
Nauru,2044,14755,NR,-0.52278,166.9315
Nepal,2044,33683328,NP,28.39486,84.12401
Netherlands,2044,18660704,NL,52.13263,5.29127
New Caledonia,2044,333777,NC,-20.90431,165.61804
New Zealand,2044,5773618,NZ,-40.90056,174.88597
Nicaragua,2044,8439716,NI,12.86542,-85.20723
Niger,2044,46353162,NE,17.60779,8.08167
Nigeria,2044,331983358,NG,9.082,8.67528
North America,2044,412976238,,,
North Macedonia,2044,1558711,MK,41.60864,21.74528
Northern Mariana Islands,2044,42563,MP,17.33083,145.38469
Norway,2044,5821174,NO,60.47202,8.46895
Not classified,2044,..,,,
OECD members,2044,1429825836,,,
Oman,2044,7280851,OM,21.51258,55.92326
Other small states,2044,14388620,,,
Pacific island small states,2044,3407198,,,
Pakistan,2044,344095461,PK,30.37532,69.34512
Palau,2044,16200,PW,7.51498,134.58252
Panama,2044,5438260,PA,8.53798,-80.78213
Papua New Guinea,2044,14009933,PG,-6.31499,143.95555
Paraguay,2044,8324332,PY,-23.4425,-58.44383
Peru,2044,39612850,PE,-9.18997,-75.01515
Philippines,2044,131979663,PH,12.87972,121.77402
Poland,2044,32425552,PL,51.91944,19.14514
Portugal,2044,10155915,PT,39.39987,-8.22445
Post-demographic dividend,2044,1126946803,,,
Pre-demographic dividend,2044,1715771383,,,
Puerto Rico (US),2044,2651587,,,
Qatar,2044,3643561,QA,25.35483,51.18388
Romania,2044,16762263,RO,45.94316,24.96676
Russian Federation,2044,137448880,RU,61.52401,105.31876
Rwanda,2044,20837083,RW,-1.94028,29.87389
Samoa,2044,257616,WS,-13.75903,-172.10463
San Marino,2044,34361,SM,43.94236,12.45778
Sao Tome and Principe,2044,335928,ST,0.18636,6.61308
Saudi Arabia,2044,46120496,SA,23.88594,45.07916
Senegal,2044,27632998,SN,14.4974,-14.45236
Serbia,2044,5654842,RS,44.01652,21.00586
Seychelles,2044,131903,SC,-4.67957,55.49198
Sierra Leone,2044,12049426,SL,8.46056,-11.77989
Singapore,2044,6314947,SG,1.35208,103.81984
Sint Maarten (Dutch part),2044,50471,,,
Slovak Republic,2044,5004740,,,
Slovenia,2044,2016866,SI,46.15124,14.99546
Small states,2044,22541364,,,
Solomon Islands,2044,1206742,SB,-9.64571,160.15619
Somalia,2044,32780429,SO,5.15215,46.19962
South Africa,2044,76164460,ZA,-30.55948,22.93751
South Asia,2044,1916428949,,,
South Asia (IDA & IBRD),2044,1916428949,,,
South Sudan,2044,17060174,,,
Spain,2044,46505500,ES,40.46367,-3.74922
Sri Lanka,2044,23308406,LK,7.87305,80.7718
St. Kitts and Nevis,2044,45577,,,
St. Lucia,2044,176934,,,
St. Martin (French part),2044,18821,,,
St. Vincent and the Grenadines,2044,91308,,,
Sub-Saharan Africa,2044,1967482944,,,
Sub-Saharan Africa (excluding high income),2044,1764336670,,,
Sub-Saharan Africa (IDA & IBRD countries),2044,1967482944,,,
Sudan,2044,77066455,SD,12.86281,30.21764
Suriname,2044,719926,SR,3.91931,-56.02778
Sweden,2044,11089988,SE,60.12816,18.6435
Switzerland,2044,9349784,CH,46.81819,8.22751
Syrian Arab Republic,2044,35944390,SY,34.80208,38.99682
Tajikistan,2044,14504869,TJ,38.86103,71.27609
Tanzania,2044,113966272,,,
Thailand,2044,68456530,TH,15.87003,100.99254
Timor-Leste,2044,1793755,TL,-8.87422,125.72754
Togo,2044,14099649,TG,8.61954,0.82478
Tonga,2044,103611,TO,-21.17899,-175.19824
Trinidad and Tobago,2044,1314981,TT,10.6918,-61.2225
Tunisia,2044,13054102,TN,33.88692,9.5375
Turkiye,2044,89155680,,,
Turkmenistan,2044,9239269,TM,38.96972,59.55628
Turks and Caicos Islands,2044,50861,TC,21.69403,-71.79793
Tuvalu,2044,9377,TV,-7.10954,177.64933
Uganda,2044,77449521,UG,1.37333,32.29028
Ukraine,2044,34004077,UA,48.37943,31.16558
United Arab Emirates,2044,13984409,AE,23.42408,53.84782
United Kingdom,2044,74231848,GB,55.37805,-3.43597
United States,2044,367215008,US,37.09024,-95.71289
Upper middle income,2044,2850387320,,,
Uruguay,2044,3310608,UY,-32.52278,-55.76584
Uzbekistan,2044,48470625,UZ,41.37749,64.58526
Vanuatu,2044,484642,VU,-15.37671,166.95916
"Venezuela, RB",2044,30813812,,,
Viet Nam,2044,109506264,VN,14.05832,108.2772
Virgin Islands (U.S.),2044,91553,,,
West Bank and Gaza,2044,7457107,,,
World,2044,9357528727,,,
"Yemen, Rep.",2044,63880186,,,
Zambia,2044,34165933,ZM,-13.1339,27.84933
Zimbabwe,2044,23740627,ZW,-19.01544,29.15486
Afghanistan,2043,67375163,AF,33.93911,67.70995
Africa Eastern and Southern,2043,1167899984,,,
Africa Western and Central,2043,764721151,,,
Albania,2043,2316126,AL,41.15333,20.16833
Algeria,2043,56319592,DZ,28.03389,1.65963
American Samoa,2043,38741,AS,-14.27097,-170.13222
Andorra,2043,85013,AD,42.54625,1.60155
Angola,2043,63430878,AO,-11.20269,17.87389
Antigua and Barbuda,2043,96797,AG,17.06082,-61.79643
Arab World,2043,660954908,,,
Argentina,2043,48069561,AR,-38.4161,-63.61667
Armenia,2043,2677640,AM,40.0691,45.03819
Aruba,2043,102617,AW,12.52111,-69.96834
Australia,2043,31306646,AU,-25.2744,133.77514
Austria,2043,8897177,AT,47.51623,14.55007
Azerbaijan,2043,10982318,AZ,40.14311,47.57693
"Bahamas, The",2043,422332,,,
Bahrain,2043,1970585,BH,25.93041,50.63777
Bangladesh,2043,206545483,BD,23.68499,90.35633
Barbados,2043,273143,BB,13.19389,-59.5432
Belarus,2043,7931835,BY,53.70981,27.95339
Belgium,2043,11955464,BE,50.50389,4.46994
Belize,2043,500508,BZ,17.18988,-88.49765
Benin,2043,21643637,BJ,9.30769,2.31583
Bermuda,2043,60084,BM,32.32138,-64.75737
Bhutan,2043,871100,BT,27.51416,90.4336
Bolivia,2043,15294512,,,
Bosnia and Herzegovina,2043,2657001,BA,43.91589,17.67908
Botswana,2043,3222567,BW,-22.32847,24.68487
Brazil,2043,219276520,BR,-14.235,-51.92528
British Virgin Islands,2043,41123,,,
Brunei Darussalam,2043,511129,BN,4.53528,114.72767
Bulgaria,2043,5464720,BG,42.73388,25.48583
Burkina Faso,2043,33788598,BF,12.23833,-1.56159
Burundi,2043,21370849,BI,-3.37306,29.91889
Cabo Verde,2043,561347,CV,16.00208,-24.0132
Cambodia,2043,20998537,KH,12.56568,104.99096
Cameroon,2043,44857801,CM,7.36972,12.35472
Canada,2043,45544968,CA,56.13037,-106.34677
Caribbean small states,2043,4745133,,,
Cayman Islands,2043,97368,KY,19.51347,-80.56696
Central African Republic,2043,9134996,CF,6.61111,20.93944
Central Europe and the Baltics,2043,89711239,,,
Chad,2043,33525245,TD,15.45417,18.73221
Channel Islands,2043,169225,,,
Chile,2043,20532924,CL,-35.67515,-71.54297
China,2043,1306040576,CN,35.86166,104.1954
Colombia,2043,59000357,CO,4.57087,-74.29733
Comoros,2043,1185959,KM,-11.875,43.87222
"Congo, Dem. Rep.",2043,185805164,,,
"Congo, Rep.",2043,9658842,,,
Costa Rica,2043,5380914,CR,9.74892,-83.75343
Cote d'Ivoire,2043,48700665,,,
Croatia,2043,3398244,HR,45.1,15.2
Cuba,2043,9920669,CU,21.52176,-77.78117
Curacao,2043,150737,,,
Cyprus,2043,1494990,CY,35.12641,33.42986
Czechia,2043,10185983,CZ,49.81749,15.47296
Denmark,2043,6099020,DK,56.26392,9.50179
Djibouti,2043,1449563,DJ,11.82514,42.59028
Dominica,2043,63732,DM,15.415,-61.37098
Dominican Republic,2043,12727294,DO,18.73569,-70.16265
Early-demographic dividend,2043,4211316768,,,
East Asia & Pacific,2043,2341617807,,,
East Asia & Pacific (excluding high income),2043,2111682062,,,
East Asia & Pacific (IDA & IBRD countries),2043,2085358605,,,
Ecuador,2043,20759130,EC,-1.83124,-78.18341
"Egypt, Arab Rep.",2043,150547656,,,
El Salvador,2043,6661884,SV,13.79419,-88.89653
Equatorial Guinea,2043,2813773,GQ,1.6508,10.2679
Eritrea,2043,5124265,ER,15.17938,39.78233
Estonia,2043,1230402,EE,58.59527,25.01361
Eswatini,2043,1456449,SZ,-26.5225,31.46587
Ethiopia,2043,199347986,ET,9.145,40.48967
Euro area,2043,337752587,,,
Europe & Central Asia,2043,926325767,,,
Europe & Central Asia (excluding high income),2043,270157461,,,
Europe & Central Asia (IDA & IBRD countries),2043,466138493,,,
European Union,2043,428918616,,,
Faroe Islands,2043,60953,FO,61.89264,-6.91181
Fiji,2043,990871,FJ,-16.57819,179.41441
Finland,2043,5420639,FI,61.92411,25.74815
Fragile and conflict affected situations,2043,1573533639,,,
France,2043,69484352,FR,46.22764,2.21375
French Polynesia,2043,288777,PF,-17.67974,-149.40684
Gabon,2043,3640561,GA,-0.80369,11.60944
"Gambia, The",2043,3909026,,,
Georgia,2043,3578387,GE,42.31541,43.35689
Germany,2043,78755616,DE,51.16569,10.45153
Ghana,2043,46421965,GH,7.94653,-1.02319
Gibraltar,2043,48559,GI,36.13774,-5.34537
Greece,2043,9504322,GR,39.07421,21.82431
Greenland,2043,..,GL,71.70694,-42.6043
Grenada,2043,115732,GD,12.26278,-61.60417
Guam,2043,186041,GU,13.4443,144.79373
Guatemala,2043,23299240,GT,15.78347,-90.23076
Guinea,2043,21163499,GN,9.94559,-9.69665
Guinea-Bissau,2043,3109930,GW,11.80375,-15.18041
Guyana,2043,919585,GY,4.86042,-58.93018
Haiti,2043,14052355,HT,18.97119,-72.28522
Heavily indebted poor countries (HIPC),2043,1448925237,,,
High income,2043,1430456400,,,
Honduras,2043,13919667,HN,15.2,-86.24191
"Hong Kong SAR, China",2043,6625208,,,
Hungary,2043,8837133,HU,47.16249,19.5033
IBRD only,2043,..,,,
Iceland,2043,438855,IS,64.96305,-19.02084
IDA & IBRD total,2043,8065986072,,,
IDA blend,2043,..,,,
IDA only,2043,..,,,
IDA total,2043,..,,,
India,2043,1643915269,IN,20.59368,78.96288
Indonesia,2043,315304312,ID,-0.78928,113.92133
"Iran, Islamic Rep.",2043,100462092,,,
Iraq,2043,65256997,IQ,33.22319,43.67929
Ireland,2043,5961848,IE,53.41291,-8.24389
Isle of Man,2043,80578,IM,54.23611,-4.54806
Israel,2043,12710288,IL,31.04605,34.85161
Italy,2043,53676048,IT,41.87194,12.56738
Jamaica,2043,2617584,JM,18.10958,-77.29751
Japan,2043,109610528,JP,36.20482,138.25292
Jordan,2043,15077800,JO,30.58516,36.23841
Kazakhstan,2043,24941020,KZ,48.01957,66.92368
Kenya,2043,77159124,KE,-0.02356,37.90619
Kiribati,2043,170175,KI,-3.37042,-168.73404
"Korea, Dem. People's Rep.",2043,26354342,,,
"Korea, Rep.",2043,47464956,,,
Kosovo,2043,1507341,,,
Kuwait,2043,5999098,KW,29.31166,47.48177
Kyrgyz Republic,2043,9068856,,,
Lao PDR,2043,9370047,,,
Late-demographic dividend,2043,2259210026,,,
Latin America & Caribbean,2043,721384198,,,
Latin America & Caribbean (excluding high income),2043,649632652,,,
Latin America & the Caribbean (IDA & IBRD countries),2043,707752045,,,
Latvia,2043,1593531,LV,56.87964,24.60319
Least developed countries: UN classification,2043,1739682187,,,
Lebanon,2043,6754072,LB,33.85472,35.86229
Lesotho,2043,2833260,LS,-29.60999,28.23361
Liberia,2043,8077162,LR,6.42806,-9.4295
Libya,2043,8854390,LY,26.3351,17.22833
Liechtenstein,2043,43106,LI,47.166,9.55537
Lithuania,2043,2434147,LT,55.16944,23.88128
Low & middle income,2043,7646073369,,,
Low income,2043,964239501,,,
Lower middle income,2043,3828196991,,,
Luxembourg,2043,773070,LU,49.81527,6.12958
"Macao SAR, China",2043,646310,,,
Madagascar,2043,47342295,MG,-18.76695,46.86911
Malawi,2043,33122491,MW,-13.25431,34.30153
Malaysia,2043,42455953,MY,4.21048,101.97577
Maldives,2043,573135,MV,3.20278,73.22068
Mali,2043,40026323,ML,17.57069,-3.99617
Malta,2043,573108,MT,35.9375,14.37542
Marshall Islands,2043,26055,MH,7.13147,171.18448
Mauritania,2043,8192549,MR,21.00789,-10.94084
Mauritius,2043,1171772,MU,-20.3484,57.55215
Mexico,2043,146300007,MX,23.6345,-102.55278
"Micronesia, Fed. Sts.",2043,123109,,,
"Middle East, North Africa, Afghanistan & Pakistan",2043,1064250253,,,
"Middle East, North Africa, Afghanistan & Pakistan (excluding high income)",2043,972777029,,,
"Middle East, North Africa, Afghanistan & Pakistan (IDA & IBRD)",2043,965432839,,,
Middle income,2043,6681833868,,,
Moldova,2043,1916500,,,
Monaco,2043,36526,MC,43.7503,7.41284
Mongolia,2043,4274211,MN,46.8625,103.84666
Montenegro,2043,546119,ME,42.70868,19.37439
Morocco,2043,42650495,MA,31.7917,-7.09262
Mozambique,2043,55574712,MZ,-18.6657,35.52956
Myanmar,2043,58443282,MM,21.91397,95.95622
Namibia,2043,4129570,,,
Nauru,2043,14581,NR,-0.52278,166.9315
Nepal,2043,33499438,NP,28.39486,84.12401
Netherlands,2043,18671480,NL,52.13263,5.29127
New Caledonia,2043,332311,NC,-20.90431,165.61804
New Zealand,2043,5760070,NZ,-40.90056,174.88597
Nicaragua,2043,8380006,NI,12.86542,-85.20723
Niger,2043,45337255,NE,17.60779,8.08167
Nigeria,2043,327243939,NG,9.082,8.67528
North America,2043,411745308,,,
North Macedonia,2043,1571287,MK,41.60864,21.74528
Northern Mariana Islands,2043,42486,MP,17.33083,145.38469
Norway,2043,5816034,NO,60.47202,8.46895
Not classified,2043,..,,,
OECD members,2043,1429638765,,,
Oman,2043,7192222,OM,21.51258,55.92326
Other small states,2043,14337238,,,
Pacific island small states,2043,3374167,,,
Pakistan,2043,339334851,PK,30.37532,69.34512
Palau,2043,16304,PW,7.51498,134.58252
Panama,2043,5402030,PA,8.53798,-80.78213
Papua New Guinea,2043,13853418,PG,-6.31499,143.95555
Paraguay,2043,8267006,PY,-23.4425,-58.44383
Peru,2043,39420651,PE,-9.18997,-75.01515
Philippines,2043,131427393,PH,12.87972,121.77402
Poland,2043,32639996,PL,51.91944,19.14514
Portugal,2043,10188742,PT,39.39987,-8.22445
Post-demographic dividend,2043,1127947557,,,
Pre-demographic dividend,2043,1684267392,,,
Puerto Rico (US),2043,2685298,,,
Qatar,2043,3600102,QA,25.35483,51.18388
Romania,2043,16874280,RO,45.94316,24.96676
Russian Federation,2043,137603792,RU,61.52401,105.31876
Rwanda,2043,20500835,RW,-1.94028,29.87389
Samoa,2043,255019,WS,-13.75903,-172.10463
San Marino,2043,34389,SM,43.94236,12.45778
Sao Tome and Principe,2043,330917,ST,0.18636,6.61308
Saudi Arabia,2043,45603600,SA,23.88594,45.07916
Senegal,2043,27174899,SN,14.4974,-14.45236
Serbia,2043,5698655,RS,44.01652,21.00586
Seychelles,2043,131939,SC,-4.67957,55.49198
Sierra Leone,2043,11887937,SL,8.46056,-11.77989
Singapore,2043,6328803,SG,1.35208,103.81984
Sint Maarten (Dutch part),2043,50310,,,
Slovak Republic,2043,5029135,,,
Slovenia,2043,2023668,SI,46.15124,14.99546
Small states,2043,22456538,,,
Solomon Islands,2043,1189127,SB,-9.64571,160.15619
Somalia,2043,32057986,SO,5.15215,46.19962
South Africa,2043,75641513,ZA,-30.55948,22.93751
South Asia,2043,1908682955,,,
South Asia (IDA & IBRD),2043,1908682955,,,
South Sudan,2043,16829207,,,
Spain,2043,46686604,ES,40.46367,-3.74922
Sri Lanka,2043,23278530,LK,7.87305,80.7718
St. Kitts and Nevis,2043,45785,,,
St. Lucia,2043,177587,,,
St. Martin (French part),2043,18823,,,
St. Vincent and the Grenadines,2043,91648,,,
Sub-Saharan Africa,2043,1932621135,,,
Sub-Saharan Africa (excluding high income),2043,1733141210,,,
Sub-Saharan Africa (IDA & IBRD countries),2043,1932621135,,,
Sudan,2043,75723663,SD,12.86281,30.21764
Suriname,2043,717002,SR,3.91931,-56.02778
Sweden,2043,11064897,SE,60.12816,18.6435
Switzerland,2043,9347520,CH,46.81819,8.22751
Syrian Arab Republic,2043,35623329,SY,34.80208,38.99682
Tajikistan,2043,14311605,TJ,38.86103,71.27609
Tanzania,2043,111433794,,,
Thailand,2043,68748083,TH,15.87003,100.99254
Timor-Leste,2043,1776065,TL,-8.87422,125.72754
Togo,2043,13851202,TG,8.61954,0.82478
Tonga,2043,103303,TO,-21.17899,-175.19824
Trinidad and Tobago,2043,1321282,TT,10.6918,-61.2225
Tunisia,2043,13030303,TN,33.88692,9.5375
Turkiye,2043,89112920,,,
Turkmenistan,2043,9164051,TM,38.96972,59.55628
Turks and Caicos Islands,2043,50778,TC,21.69403,-71.79793
Tuvalu,2043,9312,TV,-7.10954,177.64933
Uganda,2043,76090990,UG,1.37333,32.29028
Ukraine,2043,34324131,UA,48.37943,31.16558
United Arab Emirates,2043,13824221,AE,23.42408,53.84782
United Kingdom,2043,74058248,GB,55.37805,-3.43597
United States,2043,366140256,US,37.09024,-95.71289
Upper middle income,2043,2853636877,,,
Uruguay,2043,3317934,UY,-32.52278,-55.76584
Uzbekistan,2043,47851669,UZ,41.37749,64.58526
Vanuatu,2043,476311,VU,-15.37671,166.95916
"Venezuela, RB",2043,30749668,,,
Viet Nam,2043,109292561,VN,14.05832,108.2772
Virgin Islands (U.S.),2043,92098,,,
West Bank and Gaza,2043,7344190,,,
World,2043,9306627423,,,
"Yemen, Rep.",2043,62696536,,,
Zambia,2043,33510512,ZM,-13.1339,27.84933
Zimbabwe,2043,23371287,ZW,-19.01544,29.15486
Afghanistan,2042,66060220,AF,33.93911,67.70995
Africa Eastern and Southern,2042,1146013175,,,
Africa Western and Central,2042,751765883,,,
Albania,2042,2338509,AL,41.15333,20.16833
Algeria,2042,55834555,DZ,28.03389,1.65963
American Samoa,2042,38935,AS,-14.27097,-170.13222
Andorra,2042,85284,AD,42.54625,1.60155
Angola,2042,61927914,AO,-11.20269,17.87389
Antigua and Barbuda,2042,96942,AG,17.06082,-61.79643
Arab World,2042,652487926,,,
Argentina,2042,47994507,AR,-38.4161,-63.61667
Armenia,2042,2695508,AM,40.0691,45.03819
Aruba,2042,103065,AW,12.52111,-69.96834
Australia,2042,31097602,AU,-25.2744,133.77514
Austria,2042,8919914,AT,47.51623,14.55007
Azerbaijan,2042,10963821,AZ,40.14311,47.57693
"Bahamas, The",2042,421740,,,
Bahrain,2042,1952069,BH,25.93041,50.63777
Bangladesh,2042,205259486,BD,23.68499,90.35633
Barbados,2042,274292,BB,13.19389,-59.5432
Belarus,2042,7994266,BY,53.70981,27.95339
Belgium,2042,11958366,BE,50.50389,4.46994
Belize,2042,497695,BZ,17.18988,-88.49765
Benin,2042,21242981,BJ,9.30769,2.31583
Bermuda,2042,60482,BM,32.32138,-64.75737
Bhutan,2042,868155,BT,27.51416,90.4336
Bolivia,2042,15165743,,,
Bosnia and Herzegovina,2042,2685736,BA,43.91589,17.67908
Botswana,2042,3190970,BW,-22.32847,24.68487
Brazil,2042,219319761,BR,-14.235,-51.92528
British Virgin Islands,2042,41173,,,
Brunei Darussalam,2042,509545,BN,4.53528,114.72767
Bulgaria,2042,5513712,BG,42.73388,25.48583
Burkina Faso,2042,33260948,BF,12.23833,-1.56159
Burundi,2042,20951563,BI,-3.37306,29.91889
Cabo Verde,2042,560137,CV,16.00208,-24.0132
Cambodia,2042,20848376,KH,12.56568,104.99096
Cameroon,2042,43976016,CM,7.36972,12.35472
Canada,2042,45387532,CA,56.13037,-106.34677
Caribbean small states,2042,4743701,,,
Cayman Islands,2042,96302,KY,19.51347,-80.56696
Central African Republic,2042,8931163,CF,6.61111,20.93944
Central Europe and the Baltics,2042,90247525,,,
Chad,2042,32777673,TD,15.45417,18.73221
Channel Islands,2042,169345,,,
Chile,2042,20539916,CL,-35.67515,-71.54297
China,2042,1313475840,CN,35.86166,104.1954
Colombia,2042,58878128,CO,4.57087,-74.29733
Comoros,2042,1168512,KM,-11.875,43.87222
"Congo, Dem. Rep.",2042,181350405,,,
"Congo, Rep.",2042,9466760,,,
Costa Rica,2042,5378672,CR,9.74892,-83.75343
Cote d'Ivoire,2042,47702162,,,
Croatia,2042,3423615,HR,45.1,15.2
Cuba,2042,9990896,CU,21.52176,-77.78117
Curacao,2042,151218,,,
Cyprus,2042,1492046,CY,35.12641,33.42986
Czechia,2042,10211516,CZ,49.81749,15.47296
Denmark,2042,6098777,DK,56.26392,9.50179
Djibouti,2042,1436438,DJ,11.82514,42.59028
Dominica,2042,63781,DM,15.415,-61.37098
Dominican Republic,2042,12680021,DO,18.73569,-70.16265
Early-demographic dividend,2042,4182648612,,,
East Asia & Pacific,2042,2347668633,,,
East Asia & Pacific (excluding high income),2042,2116669212,,,
East Asia & Pacific (IDA & IBRD countries),2042,2090279199,,,
Ecuador,2042,20655768,EC,-1.83124,-78.18341
"Egypt, Arab Rep.",2042,148800781,,,
El Salvador,2042,6656215,SV,13.79419,-88.89653
Equatorial Guinea,2042,2764776,GQ,1.6508,10.2679
Eritrea,2042,5039301,ER,15.17938,39.78233
Estonia,2042,1236758,EE,58.59527,25.01361
Eswatini,2042,1448110,SZ,-26.5225,31.46587
Ethiopia,2042,195695304,ET,9.145,40.48967
Euro area,2042,338681853,,,
Europe & Central Asia,2042,926906763,,,
Europe & Central Asia (excluding high income),2042,269411125,,,
Europe & Central Asia (IDA & IBRD countries),2042,465983454,,,
European Union,2042,430257780,,,
Faroe Islands,2042,60740,FO,61.89264,-6.91181
Fiji,2042,988826,FJ,-16.57819,179.41441
Finland,2042,5432113,FI,61.92411,25.74815
Fragile and conflict affected situations,2042,1547629315,,,
France,2042,69446224,FR,46.22764,2.21375
French Polynesia,2042,288995,PF,-17.67974,-149.40684
Gabon,2042,3577741,GA,-0.80369,11.60944
"Gambia, The",2042,3850536,,,
Georgia,2042,3585024,GE,42.31541,43.35689
Germany,2042,79017856,DE,51.16569,10.45153
Ghana,2042,45808599,GH,7.94653,-1.02319
Gibraltar,2042,48334,GI,36.13774,-5.34537
Greece,2042,9551822,GR,39.07421,21.82431
Greenland,2042,..,GL,71.70694,-42.6043
Grenada,2042,116013,GD,12.26278,-61.60417
Guam,2042,185237,GU,13.4443,144.79373
Guatemala,2042,23080844,GT,15.78347,-90.23076
Guinea,2042,20830651,GN,9.94559,-9.69665
Guinea-Bissau,2042,3063169,GW,11.80375,-15.18041
Guyana,2042,915813,GY,4.86042,-58.93018
Haiti,2042,13948324,HT,18.97119,-72.28522
Heavily indebted poor countries (HIPC),2042,1420983672,,,
High income,2042,1430549042,,,
Honduras,2042,13776958,HN,15.2,-86.24191
"Hong Kong SAR, China",2042,6688811,,,
Hungary,2042,8869623,HU,47.16249,19.5033
IBRD only,2042,..,,,
Iceland,2042,438252,IS,64.96305,-19.02084
IDA & IBRD total,2042,8014250694,,,
IDA blend,2042,..,,,
IDA only,2042,..,,,
IDA total,2042,..,,,
India,2042,1637235357,IN,20.59368,78.96288
Indonesia,2042,314211282,ID,-0.78928,113.92133
"Iran, Islamic Rep.",2042,100167076,,,
Iraq,2042,64260843,IQ,33.22319,43.67929
Ireland,2042,5944750,IE,53.41291,-8.24389
Isle of Man,2042,80909,IM,54.23611,-4.54806
Israel,2042,12551911,IL,31.04605,34.85161
Italy,2042,54013612,IT,41.87194,12.56738
Jamaica,2042,2638090,JM,18.10958,-77.29751
Japan,2042,110257528,JP,36.20482,138.25292
Jordan,2042,14883653,JO,30.58516,36.23841
Kazakhstan,2042,24707975,KZ,48.01957,66.92368
Kenya,2042,76161724,KE,-0.02356,37.90619
Kiribati,2042,168326,KI,-3.37042,-168.73404
"Korea, Dem. People's Rep.",2042,26420821,,,
"Korea, Rep.",2042,47848088,,,
Kosovo,2042,1508993,,,
Kuwait,2042,5945887,KW,29.31166,47.48177
Kyrgyz Republic,2042,8976537,,,
Lao PDR,2042,9305406,,,
Late-demographic dividend,2042,2266107212,,,
Latin America & Caribbean,2042,719658453,,,
Latin America & Caribbean (excluding high income),2042,647971506,,,
Latin America & the Caribbean (IDA & IBRD countries),2042,705923417,,,
Latvia,2042,1606582,LV,56.87964,24.60319
Least developed countries: UN classification,2042,1710004438,,,
Lebanon,2042,6714440,LB,33.85472,35.86229
Lesotho,2042,2808544,LS,-29.60999,28.23361
Liberia,2042,7954176,LR,6.42806,-9.4295
Libya,2042,8786620,LY,26.3351,17.22833
Liechtenstein,2042,43041,LI,47.166,9.55537
Lithuania,2042,2458328,LT,55.16944,23.88128
Low & middle income,2042,7597519598,,,
Low income,2042,945933656,,,
Lower middle income,2042,3795271207,,,
Luxembourg,2042,770198,LU,49.81527,6.12958
"Macao SAR, China",2042,650289,,,
Madagascar,2042,46508815,MG,-18.76695,46.86911
Malawi,2042,32517507,MW,-13.25431,34.30153
Malaysia,2042,42144466,MY,4.21048,101.97577
Maldives,2042,570378,MV,3.20278,73.22068
Mali,2042,39151279,ML,17.57069,-3.99617
Malta,2042,574738,MT,35.9375,14.37542
Marshall Islands,2042,26216,MH,7.13147,171.18448
Mauritania,2042,8020484,MR,21.00789,-10.94084
Mauritius,2042,1179270,MU,-20.3484,57.55215
Mexico,2042,145777456,MX,23.6345,-102.55278
"Micronesia, Fed. Sts.",2042,122627,,,
"Middle East, North Africa, Afghanistan & Pakistan",2042,1051467149,,,
"Middle East, North Africa, Afghanistan & Pakistan (excluding high income)",2042,961030284,,,
"Middle East, North Africa, Afghanistan & Pakistan (IDA & IBRD)",2042,953799895,,,
Middle income,2042,6651585942,,,
Moldova,2042,1937212,,,
Monaco,2042,36538,MC,43.7503,7.41284
Mongolia,2042,4232389,MN,46.8625,103.84666
Montenegro,2042,550233,ME,42.70868,19.37439
Morocco,2042,42500327,MA,31.7917,-7.09262
Mozambique,2042,54423406,MZ,-18.6657,35.52956
Myanmar,2042,58365923,MM,21.91397,95.95622
Namibia,2042,4073357,,,
Nauru,2042,14404,NR,-0.52278,166.9315
Nepal,2042,33309059,NP,28.39486,84.12401
Netherlands,2042,18677618,NL,52.13263,5.29127
New Caledonia,2042,330707,NC,-20.90431,165.61804
New Zealand,2042,5745222,NZ,-40.90056,174.88597
Nicaragua,2042,8318520,NI,12.86542,-85.20723
Niger,2042,44326122,NE,17.60779,8.08167
Nigeria,2042,322450309,NG,9.082,8.67528
North America,2042,410472750,,,
North Macedonia,2042,1584184,MK,41.60864,21.74528
Northern Mariana Islands,2042,42408,MP,17.33083,145.38469
Norway,2042,5810482,NO,60.47202,8.46895
Not classified,2042,..,,,
OECD members,2042,1429271522,,,
Oman,2042,7104479,OM,21.51258,55.92326
Other small states,2042,14280642,,,
Pacific island small states,2042,3340870,,,
Pakistan,2042,334551869,PK,30.37532,69.34512
Palau,2042,16404,PW,7.51498,134.58252
Panama,2042,5364663,PA,8.53798,-80.78213
Papua New Guinea,2042,13696147,PG,-6.31499,143.95555
Paraguay,2042,8208322,PY,-23.4425,-58.44383
Peru,2042,39220380,PE,-9.18997,-75.01515
Philippines,2042,130836996,PH,12.87972,121.77402
Poland,2042,32856812,PL,51.91944,19.14514
Portugal,2042,10221496,PT,39.39987,-8.22445
Post-demographic dividend,2042,1128826334,,,
Pre-demographic dividend,2042,1652789300,,,
Puerto Rico (US),2042,2718386,,,
Qatar,2042,3557345,QA,25.35483,51.18388
Romania,2042,16986510,RO,45.94316,24.96676
Russian Federation,2042,137791680,RU,61.52401,105.31876
Rwanda,2042,20153985,RW,-1.94028,29.87389
Samoa,2042,252435,WS,-13.75903,-172.10463
San Marino,2042,34377,SM,43.94236,12.45778
Sao Tome and Principe,2042,325897,ST,0.18636,6.61308
Saudi Arabia,2042,45085608,SA,23.88594,45.07916
Senegal,2042,26716433,SN,14.4974,-14.45236
Serbia,2042,5743293,RS,44.01652,21.00586
Seychelles,2042,131954,SC,-4.67957,55.49198
Sierra Leone,2042,11728791,SL,8.46056,-11.77989
Singapore,2042,6337880,SG,1.35208,103.81984
Sint Maarten (Dutch part),2042,50147,,,
Slovak Republic,2042,5053679,,,
Slovenia,2042,2030390,SI,46.15124,14.99546
Small states,2042,22365213,,,
Solomon Islands,2042,1171335,SB,-9.64571,160.15619
Somalia,2042,31350035,SO,5.15215,46.19962
South Africa,2042,75111901,ZA,-30.55948,22.93751
South Asia,2042,1900485671,,,
South Asia (IDA & IBRD),2042,1900485671,,,
South Sudan,2042,16593363,,,
